[
    {
        "name": "Sierra Vista",
        "AttWeb": "https://www.att.com/stores/arizona/sierra-vista/121694",
        "latitude": 31.5543197,
        "longitude": -110.2754103,
        "GMap": "https://maps.google.com/maps?cid=2111246013681863475",
        "Phone": "+15204591701",
        "Street": "2290 E Fry Blvd",
        "City": "Sierra Vista",
        "State": "AZ",
        "ZIP": 85635
    },
    {
        "name": "Old Spanish Trail",
        "AttWeb": "https://www.att.com/stores/arizona/tucson/201367",
        "latitude": 32.2068176,
        "longitude": -110.7885665,
        "GMap": "https://maps.google.com/maps?cid=8094719983885310520",
        "Phone": "+15204682999",
        "Street": "9565 E 22nd St",
        "City": "Tucson",
        "State": "AZ",
        "ZIP": 85748
    },
    {
        "name": "Colonia Verde",
        "AttWeb": "https://www.att.com/stores/arizona/tucson/177980",
        "latitude": 32.251359229038115,
        "longitude": -110.84019358602825,
        "GMap": "https://maps.google.com/maps?cid=16637287212901717534",
        "Phone": "+15203727191",
        "Street": "7111 E Tanque Verde Rd",
        "City": "Tucson",
        "State": "AZ",
        "ZIP": 85715
    },
    {
        "name": "Broadway",
        "AttWeb": "https://www.att.com/stores/arizona/tucson/117061",
        "latitude": 32.221323,
        "longitude": -110.8561014,
        "GMap": "https://maps.google.com/maps?cid=11492440274377701571",
        "Phone": "+15207900804",
        "Street": "6351 E Broadway Blvd",
        "City": "Tucson",
        "State": "AZ",
        "ZIP": 85710
    },
    {
        "name": "North Swan Road",
        "AttWeb": "https://www.att.com/stores/arizona/tucson/121695",
        "latitude": 32.251850419350404,
        "longitude": -110.89333266019821,
        "GMap": "https://maps.google.com/maps?cid=2650938329585687201",
        "Phone": "+15207953474",
        "Street": "2485 N Swan Rd",
        "City": "Tucson",
        "State": "AZ",
        "ZIP": 85712
    },
    {
        "name": "El Con",
        "AttWeb": "https://www.att.com/stores/arizona/tucson/110187",
        "latitude": 32.221989192007854,
        "longitude": -110.91648951172829,
        "GMap": "https://maps.google.com/maps?cid=7398506526199935961",
        "Phone": "+15203230500",
        "Street": "3587 E Broadway",
        "City": "Tucson",
        "State": "AZ",
        "ZIP": 85716
    },
    {
        "name": "Campbell Square",
        "AttWeb": "https://www.att.com/stores/arizona/tucson/201676",
        "latitude": 32.26645972348362,
        "longitude": -110.9434683329892,
        "GMap": "https://maps.google.com/maps?cid=14195704912587094631",
        "Phone": "+15204416381",
        "Street": "3286 N Campbell",
        "City": "Tucson",
        "State": "AZ",
        "ZIP": 85719
    },
    {
        "name": "East Tucson Marketplace",
        "AttWeb": "https://www.att.com/stores/arizona/tucson/113176",
        "latitude": 32.18208026255742,
        "longitude": -110.9478297829628,
        "GMap": "https://maps.google.com/maps?cid=6297065848686473724",
        "Phone": "+15207627461",
        "Street": "1570 E Tucson Marketplace",
        "City": "Tucson",
        "State": "AZ",
        "ZIP": 85713
    },
    {
        "name": "Tucson Mall",
        "AttWeb": "https://www.att.com/stores/arizona/tucson/201694",
        "latitude": 32.288541750925916,
        "longitude": -110.97388982492362,
        "GMap": "https://maps.google.com/maps?cid=2896898996267065309",
        "Phone": "+15204286163",
        "Street": "4500 N Oracle Road",
        "City": "Tucson",
        "State": "AZ",
        "ZIP": 85705
    },
    {
        "name": "Oro Valley",
        "AttWeb": "https://www.att.com/stores/arizona/tucson/201421",
        "latitude": 32.345464,
        "longitude": -110.976886,
        "GMap": "https://maps.google.com/maps?cid=4703818611444221643",
        "Phone": "+15208293909",
        "Street": "7619 N Oracle Rd",
        "City": "Tucson",
        "State": "AZ",
        "ZIP": 85704
    },
    {
        "name": "Az Oracle",
        "AttWeb": "https://www.att.com/stores/arizona/tucson/201364",
        "latitude": 32.2889102,
        "longitude": -110.9788609,
        "GMap": "https://maps.google.com/maps?cid=1116148860646137960",
        "Phone": "+15208291510",
        "Street": "4545 N Oracle Rd",
        "City": "Tucson",
        "State": "AZ",
        "ZIP": 85705
    },
    {
        "name": "Green Valley",
        "AttWeb": "https://www.att.com/stores/arizona/green-valley/174192",
        "latitude": 31.910298,
        "longitude": -110.981446,
        "GMap": "https://maps.google.com/maps?cid=9829775972669761470",
        "Phone": "+15206480817",
        "Street": "18726 S Nogales Hwy",
        "City": "Green Valley",
        "State": "AZ",
        "ZIP": 85614
    },
    {
        "name": "Westpoint Crossing",
        "AttWeb": "https://www.att.com/stores/arizona/tucson/2088",
        "latitude": 32.1619614,
        "longitude": -110.9905802,
        "GMap": "https://maps.google.com/maps?cid=13869987323903003720",
        "Phone": "+15207468508",
        "Street": "1217 W Irvington Rd",
        "City": "Tucson",
        "State": "AZ",
        "ZIP": 85714
    },
    {
        "name": "Tucson",
        "AttWeb": "https://www.att.com/stores/arizona/tucson/110181",
        "latitude": 32.33782634563806,
        "longitude": -111.01496547460556,
        "GMap": "https://maps.google.com/maps?cid=9452427588774469115",
        "Phone": "+15202974000",
        "Street": "2220 W Ina Rd",
        "City": "Tucson",
        "State": "AZ",
        "ZIP": 85741
    },
    {
        "name": "Cortaro Road",
        "AttWeb": "https://www.att.com/stores/arizona/tucson/111883",
        "latitude": 32.3562133,
        "longitude": -111.0917574,
        "GMap": "https://maps.google.com/maps?cid=8417352644686969642",
        "Phone": "+15204412229",
        "Street": "8250 N Cortaro Rd",
        "City": "Tucson",
        "State": "AZ",
        "ZIP": 85743
    },
    {
        "name": "San Tan Valley",
        "AttWeb": "https://www.att.com/stores/arizona/san-tan-valley/211837",
        "latitude": 33.250968561047664,
        "longitude": -111.5645998528849,
        "GMap": "https://maps.google.com/maps?cid=5945046115837811222",
        "Phone": "+16232674277",
        "Street": "40930 N Ironwood Dr",
        "City": "San Tan Valley",
        "State": "AZ",
        "ZIP": 85140
    },
    {
        "name": "Signal Butte",
        "AttWeb": "https://www.att.com/stores/arizona/mesa/201697",
        "latitude": 33.3908977,
        "longitude": -111.5994587,
        "GMap": "https://maps.google.com/maps?cid=13959193442469884660",
        "Phone": "+14805508018",
        "Street": "1226 S Signal Butte Rd",
        "City": "Mesa",
        "State": "AZ",
        "ZIP": 85209
    },
    {
        "name": "Queen Creek",
        "AttWeb": "https://www.att.com/stores/arizona/queen-creek/121675",
        "latitude": 33.25508400926556,
        "longitude": -111.63765236735344,
        "GMap": "https://maps.google.com/maps?cid=4048023251989025945",
        "Phone": "+14807576567",
        "Street": "21293 S Ellsworth Loop Rd",
        "City": "Queen Creek",
        "State": "AZ",
        "ZIP": 85142
    },
    {
        "name": "Flagstaff",
        "AttWeb": "https://www.att.com/stores/arizona/flagstaff/118369",
        "latitude": 35.1764496,
        "longitude": -111.6655989,
        "GMap": "https://maps.google.com/maps?cid=16493799612667234018",
        "Phone": "+19287743677",
        "Street": "2700 S Woodlands Village Blvd",
        "City": "Flagstaff",
        "State": "AZ",
        "ZIP": 86001
    },
    {
        "name": "Power Road",
        "AttWeb": "https://www.att.com/stores/arizona/mesa/110185",
        "latitude": 33.4503561,
        "longitude": -111.682176,
        "GMap": "https://maps.google.com/maps?cid=2894821986970580316",
        "Phone": "+14809858600",
        "Street": "1909 N Power",
        "City": "Mesa",
        "State": "AZ",
        "ZIP": 85205
    },
    {
        "name": "Mesa Pavillions",
        "AttWeb": "https://www.att.com/stores/arizona/mesa/123215",
        "latitude": 33.3901002,
        "longitude": -111.6838948,
        "GMap": "https://maps.google.com/maps?cid=13230486829166832186",
        "Phone": "+14803256776",
        "Street": "1411 South Power Road",
        "City": "Mesa",
        "State": "AZ",
        "ZIP": 85209
    },
    {
        "name": "Casa Grande",
        "AttWeb": "https://www.att.com/stores/arizona/casa-grande/86573",
        "latitude": 32.87981465377848,
        "longitude": -111.73538401956989,
        "GMap": "https://maps.google.com/maps?cid=5392322268194208326",
        "Phone": "+15208369000",
        "Street": "1202 E. Florence Blvd",
        "City": "Casa Grande",
        "State": "AZ",
        "ZIP": 85122
    },
    {
        "name": "Greenfield Gateway",
        "AttWeb": "https://www.att.com/stores/arizona/mesa/201407",
        "latitude": 33.3850398,
        "longitude": -111.7414727,
        "GMap": "https://maps.google.com/maps?cid=9299984855903589410",
        "Phone": "+16026109444",
        "Street": "1728 S Greenfield Rd",
        "City": "Mesa",
        "State": "AZ",
        "ZIP": 85206
    },
    {
        "name": "San Tan Village",
        "AttWeb": "https://www.att.com/stores/arizona/gilbert/80063",
        "latitude": 33.307850721514285,
        "longitude": -111.74239382521091,
        "GMap": "https://maps.google.com/maps?cid=7050052656525702441",
        "Phone": "+14808572403",
        "Street": "2224 E Williams Field Rd",
        "City": "Gilbert",
        "State": "AZ",
        "ZIP": 85295
    },
    {
        "name": "Dana Park",
        "AttWeb": "https://www.att.com/stores/arizona/mesa/91056",
        "latitude": 33.38049549123365,
        "longitude": -111.7546047270298,
        "GMap": "https://maps.google.com/maps?cid=16519434548761332605",
        "Phone": "+14805070668",
        "Street": "1902 S Val Vista Dr",
        "City": "Mesa",
        "State": "AZ",
        "ZIP": 85204
    },
    {
        "name": "Phoenix",
        "AttWeb": "https://www.att.com/stores/arizona/gilbert/176995",
        "latitude": 33.33429844556972,
        "longitude": -111.757939,
        "GMap": "https://maps.google.com/maps?cid=17102638603853902616",
        "Phone": "+16026541750",
        "Street": "1505 E Warner Rd",
        "City": "Gilbert",
        "State": "AZ",
        "ZIP": 85296
    },
    {
        "name": "Az Crossroads Town Center",
        "AttWeb": "https://www.att.com/stores/arizona/gilbert/211811",
        "latitude": 33.2795767,
        "longitude": -111.7877777,
        "GMap": "https://maps.google.com/maps?cid=18141360721318524412",
        "Phone": "+14806186533",
        "Street": "3871 S Gilbert Rd",
        "City": "Gilbert",
        "State": "AZ",
        "ZIP": 85297
    },
    {
        "name": "Ocotillo And Gilbert",
        "AttWeb": "https://www.att.com/stores/arizona/chandler/161377",
        "latitude": 33.246143144042826,
        "longitude": -111.78910100118242,
        "GMap": "https://maps.google.com/maps?cid=4914534666644339742",
        "Phone": "+14804480686",
        "Street": "4145 S Gilbert Road",
        "City": "Chandler",
        "State": "AZ",
        "ZIP": 85249
    },
    {
        "name": "Mesa",
        "AttWeb": "https://www.att.com/stores/arizona/mesa/114952",
        "latitude": 33.37984454073117,
        "longitude": -111.80626921193954,
        "GMap": "https://maps.google.com/maps?cid=4491912535840921329",
        "Phone": "+14808921422",
        "Street": "1859 S Stapley Drive",
        "City": "Mesa",
        "State": "AZ",
        "ZIP": 85204
    },
    {
        "name": "Gilbert",
        "AttWeb": "https://www.att.com/stores/arizona/gilbert/214000",
        "latitude": 33.33599962381808,
        "longitude": -111.80761333001851,
        "GMap": "https://www.google.com/maps/search/?api=1&query=830",
        "Phone": "+16029608949",
        "Street": "830 W Warner Rd",
        "City": "Gilbert",
        "State": "AZ",
        "ZIP": 85233
    },
    {
        "name": "Chandler",
        "AttWeb": "https://www.att.com/stores/arizona/chandler/112412",
        "latitude": 33.25094346894443,
        "longitude": -111.84064391410351,
        "GMap": "https://maps.google.com/maps?cid=5991095512346299103",
        "Phone": "+14808958022",
        "Street": "3731 S Arizona Ave",
        "City": "Chandler",
        "State": "AZ",
        "ZIP": 85248
    },
    {
        "name": "Alma School",
        "AttWeb": "https://www.att.com/stores/arizona/chandler/144589",
        "latitude": 33.3492589,
        "longitude": -111.8585309,
        "GMap": "https://maps.google.com/maps?cid=11984240116859911220",
        "Phone": "+14809124344",
        "Street": "995 W Elliot Rd",
        "City": "Chandler",
        "State": "AZ",
        "ZIP": 85225
    },
    {
        "name": "North Dobson Road",
        "AttWeb": "https://www.att.com/stores/arizona/mesa/117443",
        "latitude": 33.4339795,
        "longitude": -111.8686403,
        "GMap": "https://maps.google.com/maps?cid=10885880122153063403",
        "Phone": "+14803517416",
        "Street": "929 N Dobson Rd",
        "City": "Mesa",
        "State": "AZ",
        "ZIP": 85201
    },
    {
        "name": "Scottsdale",
        "AttWeb": "https://www.att.com/stores/arizona/scottsdale/209157",
        "latitude": 33.538887083261834,
        "longitude": -111.88754852829717,
        "GMap": "https://maps.google.com/maps?cid=9953135114917486173",
        "Phone": "+14804346440",
        "Street": "9010 E Talking Stick Way",
        "City": "Scottsdale",
        "State": "AZ",
        "ZIP": 85250
    },
    {
        "name": "Az Chandler Festival",
        "AttWeb": "https://www.att.com/stores/arizona/chandler/211810",
        "latitude": 33.306292739224325,
        "longitude": -111.8910084725797,
        "GMap": "https://maps.google.com/maps?cid=11189451303838073679",
        "Phone": "+14806186411",
        "Street": "2780 W Chandler Blvd",
        "City": "Chandler",
        "State": "AZ",
        "ZIP": 85224
    },
    {
        "name": "Sonora Village",
        "AttWeb": "https://www.att.com/stores/arizona/scottsdale/91719",
        "latitude": 33.62837161666659,
        "longitude": -111.89130408602826,
        "GMap": "https://maps.google.com/maps?cid=10215219009435944470",
        "Phone": "+14804830590",
        "Street": "15705 N Hayden Rd",
        "City": "Scottsdale",
        "State": "AZ",
        "ZIP": 85260
    },
    {
        "name": "Pima",
        "AttWeb": "https://www.att.com/stores/arizona/scottsdale/110188",
        "latitude": 33.582798974025984,
        "longitude": -111.89213499426842,
        "GMap": "https://maps.google.com/maps?cid=7487585186756075979",
        "Phone": "+14809916666",
        "Street": "8776 E Shea Blvd",
        "City": "Scottsdale",
        "State": "AZ",
        "ZIP": 85260
    },
    {
        "name": "Tempe Marketplace",
        "AttWeb": "https://www.att.com/stores/arizona/tempe/116539",
        "latitude": 33.4318284,
        "longitude": -111.9044295,
        "GMap": "https://maps.google.com/maps?cid=16423998089249416933",
        "Phone": "+14805570053",
        "Street": "2020 E Rio Salado Pkwy",
        "City": "Tempe",
        "State": "AZ",
        "ZIP": 85281
    },
    {
        "name": "South McClintock",
        "AttWeb": "https://www.att.com/stores/arizona/tempe/122876",
        "latitude": 33.37885232755973,
        "longitude": -111.91054699395022,
        "GMap": "https://maps.google.com/maps?cid=5487034156600378996",
        "Phone": "+14808202135",
        "Street": "5100 S McClintock Dr",
        "City": "Tempe",
        "State": "AZ",
        "ZIP": 85282
    },
    {
        "name": "Scottsdale Gateway",
        "AttWeb": "https://www.att.com/stores/arizona/scottsdale/1792",
        "latitude": 33.6408768,
        "longitude": -111.9246699,
        "GMap": "https://maps.google.com/maps?cid=9526380455220167330",
        "Phone": "+14805139199",
        "Street": "17025 N Scottsdale Rd",
        "City": "Scottsdale",
        "State": "AZ",
        "ZIP": 85255
    },
    {
        "name": "Scottsdale Renaissance",
        "AttWeb": "https://www.att.com/stores/arizona/scottsdale/2325",
        "latitude": 33.5037002,
        "longitude": -111.9257659,
        "GMap": "https://maps.google.com/maps?cid=6818917722222879903",
        "Phone": "+14809703063",
        "Street": "4545 N Scottsdale Rd",
        "City": "Scottsdale",
        "State": "AZ",
        "ZIP": 85251
    },
    {
        "name": "Asu",
        "AttWeb": "https://www.att.com/stores/arizona/tempe/161381",
        "latitude": 33.407263993978475,
        "longitude": -111.92655473954608,
        "GMap": "https://maps.google.com/maps?cid=5076303891070726995",
        "Phone": "+16024551551",
        "Street": "737 E Broadway Road",
        "City": "Tempe",
        "State": "AZ",
        "ZIP": 85282
    },
    {
        "name": "AT&T Store Tempe 1320 W Elliot",
        "AttWeb": "https://www.att.com/stores/arizona/tempe/211579",
        "latitude": 33.34951202504426,
        "longitude": -111.96023414625884,
        "GMap": "https://maps.google.com/maps?cid=15940635549076844004",
        "Phone": "+18003310500",
        "Street": "1320 W Elliot",
        "City": "Tempe",
        "State": "AZ",
        "ZIP": 85284
    },
    {
        "name": "Az Arizona Mills",
        "AttWeb": "https://www.att.com/stores/arizona/tempe/211809",
        "latitude": 33.38234532624636,
        "longitude": -111.9638958895987,
        "GMap": "https://maps.google.com/maps?cid=1865960668105546675",
        "Phone": "+14806137788",
        "Street": "5000 S Arizona Mills Cir",
        "City": "Tempe",
        "State": "AZ",
        "ZIP": 85282
    },
    {
        "name": "Cactus",
        "AttWeb": "https://www.att.com/stores/arizona/phoenix/116635",
        "latitude": 33.597657703996994,
        "longitude": -111.98039334416296,
        "GMap": "https://maps.google.com/maps?cid=6536195439151489763",
        "Phone": "+16024932051",
        "Street": "12221 N. Tatum Boulevard",
        "City": "Phoenix",
        "State": "AZ",
        "ZIP": 85032
    },
    {
        "name": "Ahwatukee Foothills Towne Center",
        "AttWeb": "https://www.att.com/stores/arizona/phoenix/474",
        "latitude": 33.321473,
        "longitude": -111.982856,
        "GMap": "https://maps.google.com/maps?cid=12602815775576792182",
        "Phone": "+14807530815",
        "Street": "4722 E Ray Road",
        "City": "Phoenix",
        "State": "AZ",
        "ZIP": 85044
    },
    {
        "name": "Thomas Road",
        "AttWeb": "https://www.att.com/stores/arizona/phoenix/209156",
        "latitude": 33.47981670470923,
        "longitude": -111.9862143746196,
        "GMap": "https://maps.google.com/maps?cid=2595151440140143857",
        "Phone": "+16028576776",
        "Street": "4423 E Thomas Rd",
        "City": "Phoenix",
        "State": "AZ",
        "ZIP": 85018
    },
    {
        "name": "Cave Creek Marketplace",
        "AttWeb": "https://www.att.com/stores/arizona/phoenix/201409",
        "latitude": 33.67172335414129,
        "longitude": -112.03001287838697,
        "GMap": "https://maps.google.com/maps?cid=6724850621782188364",
        "Phone": "+16232922202",
        "Street": "20235 N Cave Creek Rd",
        "City": "Phoenix",
        "State": "AZ",
        "ZIP": 85024
    },
    {
        "name": "Legacy Village",
        "AttWeb": "https://www.att.com/stores/arizona/phoenix/178016",
        "latitude": 33.37838004320897,
        "longitude": -112.0369946779236,
        "GMap": "https://maps.google.com/maps?cid=4013981901830823472",
        "Phone": "+14802659142",
        "Street": "2070 E Baseline Rd",
        "City": "Phoenix",
        "State": "AZ",
        "ZIP": 85042
    },
    {
        "name": "East Camelback & North 20th",
        "AttWeb": "https://www.att.com/stores/arizona/phoenix/78583",
        "latitude": 33.50958244568556,
        "longitude": -112.03842129483485,
        "GMap": "https://maps.google.com/maps?cid=17818439960847063479",
        "Phone": "+16029555391",
        "Street": "2002 E Camelback Rd",
        "City": "Phoenix",
        "State": "AZ",
        "ZIP": 85016
    },
    {
        "name": "Maricopa",
        "AttWeb": "https://www.att.com/stores/arizona/maricopa/177992",
        "latitude": 33.068488559260665,
        "longitude": -112.04738790967487,
        "GMap": "https://maps.google.com/maps?cid=4597667924768814997",
        "Phone": "+15208484440",
        "Street": "20800 N John Wayne Pkwy",
        "City": "Maricopa",
        "State": "AZ",
        "ZIP": 85139
    },
    {
        "name": "Bell Road",
        "AttWeb": "https://www.att.com/stores/arizona/phoenix/110184",
        "latitude": 33.64072270718048,
        "longitude": -112.06350535154343,
        "GMap": "https://maps.google.com/maps?cid=6740607961682084165",
        "Phone": "+16029233424",
        "Street": "748 E Bell Rd",
        "City": "Phoenix",
        "State": "AZ",
        "ZIP": 85022
    },
    {
        "name": "Phoenix",
        "AttWeb": "https://www.att.com/stores/arizona/phoenix/176082",
        "latitude": 33.486923254451646,
        "longitude": -112.08430738161468,
        "GMap": "https://maps.google.com/maps?cid=8367262678025917235",
        "Phone": "+16026750101",
        "Street": "3350 N 7th Ave",
        "City": "Phoenix",
        "State": "AZ",
        "ZIP": 85013
    },
    {
        "name": "Bethany Home",
        "AttWeb": "https://www.att.com/stores/arizona/phoenix/211132",
        "latitude": 33.52520297103607,
        "longitude": -112.09937736200892,
        "GMap": "https://maps.google.com/maps?cid=3375297527357351002",
        "Phone": "+16029756383",
        "Street": "6075 N 19th Ave",
        "City": "Phoenix",
        "State": "AZ",
        "ZIP": 85015
    },
    {
        "name": "Phoenix",
        "AttWeb": "https://www.att.com/stores/arizona/phoenix/178109",
        "latitude": 33.37717142958075,
        "longitude": -112.10060456936066,
        "GMap": "https://maps.google.com/maps?cid=6912972358851829094",
        "Phone": "+16026075501",
        "Street": "1909 W Baseline Rd",
        "City": "Phoenix",
        "State": "AZ",
        "ZIP": 85041
    },
    {
        "name": "Happy Valley",
        "AttWeb": "https://www.att.com/stores/arizona/phoenix/114784",
        "latitude": 33.71054869360269,
        "longitude": -112.11147631779102,
        "GMap": "https://maps.google.com/maps?cid=5688098239016828525",
        "Phone": "+16237800440",
        "Street": "2501 W Happy Valley Rd",
        "City": "Phoenix",
        "State": "AZ",
        "ZIP": 85027
    },
    {
        "name": "Az Deer Valley",
        "AttWeb": "https://www.att.com/stores/arizona/phoenix/211812",
        "latitude": 33.667623146035126,
        "longitude": -112.12016548597383,
        "GMap": "https://maps.google.com/maps?cid=17852054590842867769",
        "Phone": "+16023449994",
        "Street": "2805 W Agua Fria Fwy",
        "City": "Phoenix",
        "State": "AZ",
        "ZIP": 85027
    },
    {
        "name": "Metro Towne Center",
        "AttWeb": "https://www.att.com/stores/arizona/phoenix/123202",
        "latitude": 33.581415625260476,
        "longitude": -112.12260734239914,
        "GMap": "https://maps.google.com/maps?cid=2076656231148773234",
        "Phone": "+16028701199",
        "Street": "10460 N. 28th Drive",
        "City": "Phoenix",
        "State": "AZ",
        "ZIP": 85051
    },
    {
        "name": "Laveen",
        "AttWeb": "https://www.att.com/stores/arizona/laveen/201408",
        "latitude": 33.378879505273176,
        "longitude": -112.16659208757926,
        "GMap": "https://maps.google.com/maps?cid=785540853473418186",
        "Phone": "+16232922200",
        "Street": "5020 W Baseline Rd",
        "City": "Laveen",
        "State": "AZ",
        "ZIP": 85339
    },
    {
        "name": "AT&T Store Phoenix 5840 W Thomas Rd",
        "AttWeb": "https://www.att.com/stores/arizona/phoenix/214183",
        "latitude": 33.480883843337544,
        "longitude": -112.18542603745621,
        "GMap": "https://maps.google.com/maps?cid=13820313172105451438",
        "Phone": "+14807418849",
        "Street": "5840 W Thomas Rd",
        "City": "Phoenix",
        "State": "AZ",
        "ZIP": 85031
    },
    {
        "name": "Glendale",
        "AttWeb": "https://www.att.com/stores/arizona/glendale/178161",
        "latitude": 33.5523909,
        "longitude": -112.185618,
        "GMap": "https://maps.google.com/maps?cid=17687377530897337068",
        "Phone": "+16232489217",
        "Street": "5849 W Northern Ave",
        "City": "Glendale",
        "State": "AZ",
        "ZIP": 85301
    },
    {
        "name": "West Peoria",
        "AttWeb": "https://www.att.com/stores/arizona/glendale/110183",
        "latitude": 33.58125044167246,
        "longitude": -112.20235526561737,
        "GMap": "https://maps.google.com/maps?cid=17353892790262734294",
        "Phone": "+16238788300",
        "Street": "6649 W Peoria",
        "City": "Glendale",
        "State": "AZ",
        "ZIP": 85302
    },
    {
        "name": "Arrowhead Festival",
        "AttWeb": "https://www.att.com/stores/arizona/glendale/2038",
        "latitude": 33.63982949721617,
        "longitude": -112.22066134214401,
        "GMap": "https://maps.google.com/maps?cid=7388329885222743100",
        "Phone": "+16234120415",
        "Street": "7530 W Bell Rd",
        "City": "Glendale",
        "State": "AZ",
        "ZIP": 85308
    },
    {
        "name": "Desert Sky Esplanade",
        "AttWeb": "https://www.att.com/stores/arizona/phoenix/34",
        "latitude": 33.4722165,
        "longitude": -112.2222827,
        "GMap": "https://maps.google.com/maps?cid=15798054347769693134",
        "Phone": "+16238499194",
        "Street": "7515 W Encanto Blvd",
        "City": "Phoenix",
        "State": "AZ",
        "ZIP": 85035
    },
    {
        "name": "Desert Sky Mall",
        "AttWeb": "https://www.att.com/stores/arizona/phoenix/201693",
        "latitude": 33.477195,
        "longitude": -112.224838,
        "GMap": "https://maps.google.com/maps?cid=15274399647125951236",
        "Phone": "+16232998742",
        "Street": "7611 W Thomas Rd",
        "City": "Phoenix",
        "State": "AZ",
        "ZIP": 85033
    },
    {
        "name": "Glendale",
        "AttWeb": "https://www.att.com/stores/arizona/glendale/178199",
        "latitude": 33.536987,
        "longitude": -112.261402,
        "GMap": "https://maps.google.com/maps?cid=858618031737785057",
        "Phone": "+16232343100",
        "Street": "9405 W Glendale Ave",
        "City": "Glendale",
        "State": "AZ",
        "ZIP": 85305
    },
    {
        "name": "Tolleson",
        "AttWeb": "https://www.att.com/stores/arizona/tolleson/110191",
        "latitude": 33.42254985255273,
        "longitude": -112.27189287543297,
        "GMap": "https://maps.google.com/maps?cid=44359334715006671",
        "Phone": "+16239367090",
        "Street": "2735 S 99th Ave",
        "City": "Tolleson",
        "State": "AZ",
        "ZIP": 85353
    },
    {
        "name": "Peoria",
        "AttWeb": "https://www.att.com/stores/arizona/peoria/105162",
        "latitude": 33.7124443,
        "longitude": -112.2741532,
        "GMap": "https://maps.google.com/maps?cid=12853974274536495361",
        "Phone": "+16238254396",
        "Street": "9980 West Happy Valley Road",
        "City": "Peoria",
        "State": "AZ",
        "ZIP": 85383
    },
    {
        "name": "Camelback",
        "AttWeb": "https://www.att.com/stores/arizona/phoenix/110182",
        "latitude": 33.50798520808705,
        "longitude": -112.27528989315033,
        "GMap": "https://maps.google.com/maps?cid=2762970935531534220",
        "Phone": "+16237728443",
        "Street": "9925 W Camelback Rd",
        "City": "Phoenix",
        "State": "AZ",
        "ZIP": 85037
    },
    {
        "name": "Cornerstone Boulevard",
        "AttWeb": "https://www.att.com/stores/arizona/goodyear/116531",
        "latitude": 33.461062420648894,
        "longitude": -112.34154573677853,
        "GMap": "https://maps.google.com/maps?cid=12317183237361300376",
        "Phone": "+16239352323",
        "Street": "1330 N. Dysart Road",
        "City": "Goodyear",
        "State": "AZ",
        "ZIP": 85395
    },
    {
        "name": "West Bell Road",
        "AttWeb": "https://www.att.com/stores/arizona/surprise/2826",
        "latitude": 33.636980311094234,
        "longitude": -112.35577709759684,
        "GMap": "https://maps.google.com/maps?cid=6332724016945081558",
        "Phone": "+16235561490",
        "Street": "13757 W Bell Rd",
        "City": "Surprise",
        "State": "AZ",
        "ZIP": 85374
    },
    {
        "name": "Goodyear",
        "AttWeb": "https://www.att.com/stores/arizona/goodyear/117442",
        "latitude": 33.458987508002764,
        "longitude": -112.39308446645731,
        "GMap": "https://maps.google.com/maps?cid=16263941167099510244",
        "Phone": "+16233375382",
        "Street": "1120 N Estrella Pkwy",
        "City": "Goodyear",
        "State": "AZ",
        "ZIP": 85338
    },
    {
        "name": "Prescott",
        "AttWeb": "https://www.att.com/stores/arizona/prescott/100003",
        "latitude": 34.5489502,
        "longitude": -112.4057857,
        "GMap": "https://maps.google.com/maps?cid=8566033112961388344",
        "Phone": "+19282770335",
        "Street": "250 Lee Blvd",
        "City": "Prescott",
        "State": "AZ",
        "ZIP": 86303
    },
    {
        "name": "Surprise",
        "AttWeb": "https://www.att.com/stores/arizona/surprise/209158",
        "latitude": 33.62278873503377,
        "longitude": -112.42459158654324,
        "GMap": "https://maps.google.com/maps?cid=5442469633266778648",
        "Phone": "+16232679333",
        "Street": "16995 W Greenway Rd",
        "City": "Surprise",
        "State": "AZ",
        "ZIP": 85388
    },
    {
        "name": "Buckeye",
        "AttWeb": "https://www.att.com/stores/arizona/buckeye/110242",
        "latitude": 33.439436624529584,
        "longitude": -112.55743145942688,
        "GMap": "https://maps.google.com/maps?cid=17149807414258129933",
        "Phone": "+16233271689",
        "Street": "818 South Watson Rd",
        "City": "Buckeye",
        "State": "AZ",
        "ZIP": 85326
    },
    {
        "name": "Kingman",
        "AttWeb": "https://www.att.com/stores/arizona/kingman/122230",
        "latitude": 35.2355251,
        "longitude": -114.0370789,
        "GMap": "https://maps.google.com/maps?cid=8669401759401376546",
        "Phone": "+19286813555",
        "Street": "3880 Stockton Hill Rd",
        "City": "Kingman",
        "State": "AZ",
        "ZIP": 86409
    },
    {
        "name": "Lake Havasu City",
        "AttWeb": "https://www.att.com/stores/arizona/lake-havasu-city/122231",
        "latitude": 34.472494475180525,
        "longitude": -114.34281103693593,
        "GMap": "https://maps.google.com/maps?cid=10035663009234604975",
        "Phone": "+19286806116",
        "Street": "55 S Lake Havasu Ave",
        "City": "Lake Havasu City",
        "State": "AZ",
        "ZIP": 86403
    },
    {
        "name": "Fortuna Foothills",
        "AttWeb": "https://www.att.com/stores/arizona/yuma/176081",
        "latitude": 32.66885435789637,
        "longitude": -114.44051914847944,
        "GMap": "https://maps.google.com/maps?cid=1487842453083676746",
        "Phone": "+19282203168",
        "Street": "11259 S Frontage Road",
        "City": "Yuma",
        "State": "AZ",
        "ZIP": 85367
    },
    {
        "name": "Bullhead City",
        "AttWeb": "https://www.att.com/stores/arizona/bullhead-city/198535",
        "latitude": 35.08137798668104,
        "longitude": -114.5943479893625,
        "GMap": "https://maps.google.com/maps?cid=3687598703747271898",
        "Phone": "+19287540201",
        "Street": "2840 Highway 95",
        "City": "Bullhead City",
        "State": "AZ",
        "ZIP": 86442
    },
    {
        "name": "Yuma",
        "AttWeb": "https://www.att.com/stores/arizona/yuma/178006",
        "latitude": 32.70273281260021,
        "longitude": -114.6076986113132,
        "GMap": "https://maps.google.com/maps?cid=6258606424225166618",
        "Phone": "+19287232045",
        "Street": "1380 S Castle Dome Ave",
        "City": "Yuma",
        "State": "AZ",
        "ZIP": 85365
    },
    {
        "name": "Big Curve Shopping Center",
        "AttWeb": "https://www.att.com/stores/arizona/yuma/100004",
        "latitude": 32.6703435,
        "longitude": -114.6219344,
        "GMap": "https://maps.google.com/maps?cid=16419248418414866430",
        "Phone": "+19282718673",
        "Street": "276 W 32nd St",
        "City": "Yuma",
        "State": "AZ",
        "ZIP": 85364
    }
]