[
    {
        "name": "East Boynton",
        "AttWeb": "https://www.att.com/stores/florida/boynton-beach/209251",
        "latitude": 26.5134398,
        "longitude": -80.0597207,
        "GMap": "https://maps.google.com/maps?cid=5255388759873500612",
        "Phone": "+15615095826",
        "Street": "566 East Woolbright Road",
        "City": "Boynton Beach",
        "State": "FL",
        "ZIP": 33435
    },
    {
        "name": "Lantana",
        "AttWeb": "https://www.att.com/stores/florida/lantana/176171",
        "latitude": 26.58835985076634,
        "longitude": -80.06604313150035,
        "GMap": "https://maps.google.com/maps?cid=6392160807470789168",
        "Phone": "+15613667528",
        "Street": "1587 W Lantana Rd",
        "City": "Lantana",
        "State": "FL",
        "ZIP": 33462
    },
    {
        "name": "Delray Beach",
        "AttWeb": "https://www.att.com/stores/florida/delray-beach/94804",
        "latitude": 26.4700047,
        "longitude": -80.0678483,
        "GMap": "https://maps.google.com/maps?cid=14039980871489667212",
        "Phone": "+15614040662",
        "Street": "455 NE 5th Ave",
        "City": "Delray Beach",
        "State": "FL",
        "ZIP": 33483
    },
    {
        "name": "Delray Place",
        "AttWeb": "https://www.att.com/stores/florida/delray-beach/164314",
        "latitude": 26.43929376165617,
        "longitude": -80.068549317791,
        "GMap": "https://www.google.com/maps/search/?api=1&query=430",
        "Phone": "+15615626639",
        "Street": "430 East Linton Blvd",
        "City": "Delray Beach",
        "State": "FL",
        "ZIP": 33483
    },
    {
        "name": "Palm Beach Gardens",
        "AttWeb": "https://www.att.com/stores/florida/palm-beach-gardens/121065",
        "latitude": 26.84355652955714,
        "longitude": -80.07262024492377,
        "GMap": "https://maps.google.com/maps?cid=6775151111916187849",
        "Phone": "+15617999660",
        "Street": "2510 Pga Blvd",
        "City": "Palm Beach Gardens",
        "State": "FL",
        "ZIP": 33410
    },
    {
        "name": "5th Avenue Shops",
        "AttWeb": "https://www.att.com/stores/florida/boca-raton/78785",
        "latitude": 26.367533454676582,
        "longitude": -80.07613728350236,
        "GMap": "https://maps.google.com/maps?cid=15626627861486736981",
        "Phone": "+15613532355",
        "Street": "1956 NE 5th Ave",
        "City": "Boca Raton",
        "State": "FL",
        "ZIP": 33431
    },
    {
        "name": "Delray",
        "AttWeb": "https://www.att.com/stores/florida/delray-beach/80826",
        "latitude": 26.439192318924114,
        "longitude": -80.07868943561664,
        "GMap": "https://maps.google.com/maps?cid=2141412808174828531",
        "Phone": "+15612723811",
        "Street": "520 Linton Blvd",
        "City": "Delray Beach",
        "State": "FL",
        "ZIP": 33444
    },
    {
        "name": "Okeechobee",
        "AttWeb": "https://www.att.com/stores/florida/west-palm-beach/80481",
        "latitude": 26.7059726,
        "longitude": -80.0795874,
        "GMap": "https://maps.google.com/maps?cid=10347544186287930167",
        "Phone": "+15616878600",
        "Street": "1862 Okeechobee Blvd",
        "City": "West Palm Beach",
        "State": "FL",
        "ZIP": 33409
    },
    {
        "name": "Northlake",
        "AttWeb": "https://www.att.com/stores/florida/palm-beach-gardens/85326",
        "latitude": 26.808750690851088,
        "longitude": -80.08211356471287,
        "GMap": "https://maps.google.com/maps?cid=9771409096730357145",
        "Phone": "+15618420799",
        "Street": "3005 Northlake Blvd",
        "City": "Palm Beach Gardens",
        "State": "FL",
        "ZIP": 33403
    },
    {
        "name": "Pga Boulevard",
        "AttWeb": "https://www.att.com/stores/florida/palm-beach-gardens/361",
        "latitude": 26.848395,
        "longitude": -80.083777,
        "GMap": "https://maps.google.com/maps?cid=6303575384330682803",
        "Phone": "+15617769446",
        "Street": "3101 Pga Blvd",
        "City": "Palm Beach Gardens",
        "State": "FL",
        "ZIP": 33410
    },
    {
        "name": "Tequesta",
        "AttWeb": "https://www.att.com/stores/florida/tequesta/118700",
        "latitude": 26.961507390683288,
        "longitude": -80.08401404108716,
        "GMap": "https://maps.google.com/maps?cid=12594362087615217991",
        "Phone": "+17724199819",
        "Street": "163 US-1",
        "City": "Tequesta",
        "State": "FL",
        "ZIP": 33469
    },
    {
        "name": "Palm Beach Outlet",
        "AttWeb": "https://www.att.com/stores/florida/west-palm-beach/116145",
        "latitude": 26.724359,
        "longitude": -80.0846583,
        "GMap": "https://maps.google.com/?cid=16854309029116168114",
        "Phone": "+15613791294",
        "Street": "1703 Palm Beach Lakes Blvd",
        "City": "West Palm Beach",
        "State": "FL",
        "ZIP": 33401
    },
    {
        "name": "Downtown Boca",
        "AttWeb": "https://www.att.com/stores/florida/boca-raton/116112",
        "latitude": 26.348286,
        "longitude": -80.08618,
        "GMap": "https://maps.google.com/maps?cid=6202228841820844164",
        "Phone": "+15617050995",
        "Street": "152 S Federal Hwy",
        "City": "Boca Raton",
        "State": "FL",
        "ZIP": 33432
    },
    {
        "name": "Palm Springs",
        "AttWeb": "https://www.att.com/stores/florida/palm-springs/85821",
        "latitude": 26.6392304,
        "longitude": -80.0871809,
        "GMap": "https://maps.google.com/maps?cid=16513285181424304863",
        "Phone": "+15616411776",
        "Street": "1730 S. Congress Ave",
        "City": "Palm Springs",
        "State": "FL",
        "ZIP": 33461
    },
    {
        "name": "West Boynton Beach",
        "AttWeb": "https://www.att.com/stores/florida/boynton-beach/75927",
        "latitude": 26.546013771900714,
        "longitude": -80.08999663121921,
        "GMap": "https://maps.google.com/maps?cid=1781703906053024877",
        "Phone": "+15617321114",
        "Street": "1880 N Congress Ave",
        "City": "Boynton Beach",
        "State": "FL",
        "ZIP": 33426
    },
    {
        "name": "Indiantown Road",
        "AttWeb": "https://www.att.com/stores/florida/jupiter/110139",
        "latitude": 26.9349316,
        "longitude": -80.0914049,
        "GMap": "https://maps.google.com/?cid=4238201232301084488",
        "Phone": "+15617482225",
        "Street": "75 E Indiantown Rd",
        "City": "Jupiter",
        "State": "FL",
        "ZIP": 33477
    },
    {
        "name": "South Federal Highway",
        "AttWeb": "https://www.att.com/stores/florida/deerfield-beach/79504",
        "latitude": 26.31333497812361,
        "longitude": -80.09206707472913,
        "GMap": "https://maps.google.com/maps?cid=7810445734269876090",
        "Phone": "+19544211503",
        "Street": "411 South Federal Hwy",
        "City": "Deerfield Beach",
        "State": "FL",
        "ZIP": 33441
    },
    {
        "name": "Pompano Citi Centre",
        "AttWeb": "https://www.att.com/stores/florida/pompano-beach/103296",
        "latitude": 26.2551679,
        "longitude": -80.0996152,
        "GMap": "https://maps.google.com/?cid=581805448969270054",
        "Phone": "+19548760365",
        "Street": "1800 North Federal Highway",
        "City": "Pompano Beach",
        "State": "FL",
        "ZIP": 33062
    },
    {
        "name": "Boca Village",
        "AttWeb": "https://www.att.com/stores/florida/boca-raton/2563",
        "latitude": 26.3932719005553,
        "longitude": -80.10097708576882,
        "GMap": "https://maps.google.com/maps?cid=5166665048765055096",
        "Phone": "+15619948669",
        "Street": "694 Yamato Rd Bay 1",
        "City": "Boca Raton",
        "State": "FL",
        "ZIP": 33431
    },
    {
        "name": "Village Boulevard",
        "AttWeb": "https://www.att.com/stores/florida/west-palm-beach/174381",
        "latitude": 26.7135068,
        "longitude": -80.1021154,
        "GMap": "https://maps.google.com/maps?cid=11005009106823649999",
        "Phone": "+15612900190",
        "Street": "801 Village Blvd",
        "City": "West Palm Beach",
        "State": "FL",
        "ZIP": 33409
    },
    {
        "name": "Donald Ross Road",
        "AttWeb": "https://www.att.com/stores/florida/palm-beach-gardens/110138",
        "latitude": 26.88147663279722,
        "longitude": -80.10535414030772,
        "GMap": "https://maps.google.com/?cid=3363044146449922581",
        "Phone": "+15617761020",
        "Street": "4550 Donald Ross Rd",
        "City": "Palm Beach Gardens",
        "State": "FL",
        "ZIP": 33418
    },
    {
        "name": "Pompano Beach",
        "AttWeb": "https://www.att.com/stores/florida/pompano-beach/162010",
        "latitude": 26.21463367653769,
        "longitude": -80.10669538789645,
        "GMap": "https://maps.google.com/maps?cid=16195715047308409138",
        "Phone": "+17542056999",
        "Street": "1299 S Federal Hwy",
        "City": "Pompano Beach",
        "State": "FL",
        "ZIP": 33062
    },
    {
        "name": "Galleria",
        "AttWeb": "https://www.att.com/stores/florida/fort-lauderdale/85799",
        "latitude": 26.137147,
        "longitude": -80.113435,
        "GMap": "https://maps.google.com/maps?cid=6157680747558176722",
        "Phone": "+19549169696",
        "Street": "2414 East Sunrise Blvd",
        "City": "Fort Lauderdale",
        "State": "FL",
        "ZIP": 33304
    },
    {
        "name": "North Federal & East Oakland",
        "AttWeb": "https://www.att.com/stores/florida/fort-lauderdale/121067",
        "latitude": 26.156597519184135,
        "longitude": -80.11694031711605,
        "GMap": "https://maps.google.com/maps?cid=9575951119453509289",
        "Phone": "+19543764622",
        "Street": "2424 N Federal Hwy",
        "City": "Fort Lauderdale",
        "State": "FL",
        "ZIP": 33305
    },
    {
        "name": "Delray Beach",
        "AttWeb": "https://www.att.com/stores/florida/delray-beach/161761",
        "latitude": 26.458325592375665,
        "longitude": -80.11864217790986,
        "GMap": "https://maps.google.com/maps?cid=505917212201181889",
        "Phone": "+15619279277",
        "Street": "4749 W Atlantic Ave",
        "City": "Delray Beach",
        "State": "FL",
        "ZIP": 33446
    },
    {
        "name": "Pmg Plaza",
        "AttWeb": "https://www.att.com/stores/florida/fort-lauderdale/78705",
        "latitude": 26.1405316,
        "longitude": -80.1204445,
        "GMap": "https://maps.google.com/maps?cid=3971358266066865497",
        "Phone": "+19547676464",
        "Street": "1165 North Federal Hwy",
        "City": "Fort Lauderdale",
        "State": "FL",
        "ZIP": 33304
    },
    {
        "name": "East Commercial Boulevard",
        "AttWeb": "https://www.att.com/stores/florida/fort-lauderdale/121059",
        "latitude": 26.189546553639012,
        "longitude": -80.12213569938831,
        "GMap": "https://maps.google.com/maps?cid=5822099008921314490",
        "Phone": "+19547722326",
        "Street": "1817 East Commercial Blvd",
        "City": "Fort Lauderdale",
        "State": "FL",
        "ZIP": 33308
    },
    {
        "name": "Sunny Isles Beach",
        "AttWeb": "https://www.att.com/stores/florida/sunny-isles-beach/113172",
        "latitude": 25.934606443474877,
        "longitude": -80.12250492812024,
        "GMap": "https://maps.google.com/maps?cid=10665873024887139704",
        "Phone": "+13059740519",
        "Street": "17100 Collins Ave",
        "City": "Sunny Isles Beach",
        "State": "FL",
        "ZIP": 33160
    },
    {
        "name": "Surfside",
        "AttWeb": "https://www.att.com/stores/florida/surfside/123860",
        "latitude": 25.886548,
        "longitude": -80.123389,
        "GMap": "https://maps.google.com/maps?cid=6607841692714523689",
        "Phone": "+13052241931",
        "Street": "9569 Harding Ave",
        "City": "Surfside",
        "State": "FL",
        "ZIP": 33154
    },
    {
        "name": "Greenacres",
        "AttWeb": "https://www.att.com/stores/florida/greenacres/121069",
        "latitude": 26.61921486467923,
        "longitude": -80.12459859251976,
        "GMap": "https://maps.google.com/maps?cid=5707856800910327594",
        "Phone": "+15619666069",
        "Street": "5177 Lake Worth Road",
        "City": "Greenacres",
        "State": "FL",
        "ZIP": 33463
    },
    {
        "name": "Hallandale Beach",
        "AttWeb": "https://www.att.com/stores/florida/hallandale-beach/177082",
        "latitude": 25.98668840250387,
        "longitude": -80.1255326444151,
        "GMap": "https://maps.google.com/maps?cid=15344479896097062580",
        "Phone": "+19547738111",
        "Street": "2309 E Hallandale Beach Blvd",
        "City": "Hallandale Beach",
        "State": "FL",
        "ZIP": 33009
    },
    {
        "name": "Miami Beach",
        "AttWeb": "https://www.att.com/stores/florida/miami-beach/103352",
        "latitude": 25.813996625074537,
        "longitude": -80.12736029664438,
        "GMap": "https://maps.google.com/?cid=14972448334480413671",
        "Phone": "+13055347323",
        "Street": "339 Arthur Godfrey Rd",
        "City": "Miami Beach",
        "State": "FL",
        "ZIP": 33140
    },
    {
        "name": "South Harbor Plaza",
        "AttWeb": "https://www.att.com/stores/florida/ft-lauderdale/119786",
        "latitude": 26.0987046052723,
        "longitude": -80.12969210743898,
        "GMap": "https://maps.google.com/maps?cid=15084308134335097713",
        "Phone": "+19546521562",
        "Street": "1814 Cordova Rd",
        "City": "Ft Lauderdale",
        "State": "FL",
        "ZIP": 33316
    },
    {
        "name": "West Indiantown Road",
        "AttWeb": "https://www.att.com/stores/florida/jupiter/111085",
        "latitude": 26.934227747995827,
        "longitude": -80.13097688555712,
        "GMap": "https://maps.google.com/maps?cid=1009846074913096697",
        "Phone": "+15617485473",
        "Street": "6286 W Indiantown Road",
        "City": "Jupiter",
        "State": "FL",
        "ZIP": 33458
    },
    {
        "name": "Boca Town Center",
        "AttWeb": "https://www.att.com/stores/florida/boca-raton/95125",
        "latitude": 26.36424034298612,
        "longitude": -80.13306574045919,
        "GMap": "https://maps.google.com/maps?cid=13631560577587741814",
        "Phone": "+15617500955",
        "Street": "6000 Glades Road",
        "City": "Boca Raton",
        "State": "FL",
        "ZIP": 33431
    },
    {
        "name": "Ft. Lauderdale-Downtown",
        "AttWeb": "https://www.att.com/stores/florida/fort-lauderdale/144549",
        "latitude": 26.1291846,
        "longitude": -80.1372321,
        "GMap": "https://maps.google.com/maps?cid=9620938435798555943",
        "Phone": "+19545273968",
        "Street": "530 North Federal Highway",
        "City": "Fort Lauderdale",
        "State": "FL",
        "ZIP": 33301
    },
    {
        "name": "Alton Road",
        "AttWeb": "https://www.att.com/stores/florida/miami-beach/47086",
        "latitude": 25.78796171249023,
        "longitude": -80.14069338551678,
        "GMap": "https://maps.google.com/maps?cid=1397545161849977146",
        "Phone": "+13055328848",
        "Street": "1517 Alton Rd",
        "City": "Miami Beach",
        "State": "FL",
        "ZIP": 33139
    },
    {
        "name": "Hollywood Circle",
        "AttWeb": "https://www.att.com/stores/florida/hollywood/177091",
        "latitude": 26.013029698034504,
        "longitude": -80.14246413514016,
        "GMap": "https://maps.google.com/maps?cid=13697951302503956667",
        "Phone": "+19546394709",
        "Street": "1761 N Young Circle",
        "City": "Hollywood",
        "State": "FL",
        "ZIP": 33020
    },
    {
        "name": "Aventura Kiosk",
        "AttWeb": "https://www.att.com/stores/florida/miami/35",
        "latitude": 25.95724,
        "longitude": -80.143183,
        "GMap": "https://maps.google.com/maps?cid=8570152169585987618",
        "Phone": "+13059372963",
        "Street": "19501 Biscayne Blvd",
        "City": "Miami",
        "State": "FL",
        "ZIP": 33180
    },
    {
        "name": "Promenade Shops",
        "AttWeb": "https://www.att.com/stores/florida/miami/176165",
        "latitude": 25.965306,
        "longitude": -80.143959,
        "GMap": "https://maps.google.com/maps?cid=11143375137631171951",
        "Phone": "+17862179540",
        "Street": "20445 Biscayne Blvd",
        "City": "Miami",
        "State": "FL",
        "ZIP": 33180
    },
    {
        "name": "Pinewood Square",
        "AttWeb": "https://www.att.com/stores/florida/lake-worth/177079",
        "latitude": 26.587899608628078,
        "longitude": -80.14599360466065,
        "GMap": "https://maps.google.com/maps?cid=7160718560412509795",
        "Phone": "+15618993046",
        "Street": "6346 Lantana Road",
        "City": "Lake Worth",
        "State": "FL",
        "ZIP": 33463
    },
    {
        "name": "Riverbridge Centre",
        "AttWeb": "https://www.att.com/stores/florida/greenacres/103359",
        "latitude": 26.6490385,
        "longitude": -80.1461182,
        "GMap": "https://maps.google.com/?cid=881946971470510932",
        "Phone": "+15614391222",
        "Street": "6748 Forest Hill Blvd",
        "City": "Greenacres",
        "State": "FL",
        "ZIP": 33413
    },
    {
        "name": "Aventura",
        "AttWeb": "https://www.att.com/stores/florida/aventura/101948",
        "latitude": 25.942659247270743,
        "longitude": -80.14796760846025,
        "GMap": "https://maps.google.com/maps?cid=5281460233287521872",
        "Phone": "+13056828000",
        "Street": "18101 Biscayne Boulevard",
        "City": "Aventura",
        "State": "FL",
        "ZIP": 33160
    },
    {
        "name": "Regency",
        "AttWeb": "https://www.att.com/stores/florida/boca-raton/78784",
        "latitude": 26.39536067723694,
        "longitude": -80.1486486196518,
        "GMap": "https://maps.google.com/maps?cid=17966287433253199212",
        "Phone": "+15619959614",
        "Street": "3013 Yamato Rd",
        "City": "Boca Raton",
        "State": "FL",
        "ZIP": 33434
    },
    {
        "name": "Cypress Station",
        "AttWeb": "https://www.att.com/stores/florida/fort-lauderdale/1025",
        "latitude": 26.2055265,
        "longitude": -80.1489871,
        "GMap": "https://maps.google.com/maps?cid=13901928391656328566",
        "Phone": "+19547763952",
        "Street": "6311 N Andrews Ave",
        "City": "Fort Lauderdale",
        "State": "FL",
        "ZIP": 33309
    },
    {
        "name": "Shoppes at Woolbright",
        "AttWeb": "https://www.att.com/stores/florida/boynton-beach/121057",
        "latitude": 26.515330959136605,
        "longitude": -80.14955275289304,
        "GMap": "https://maps.google.com/maps?cid=12970890808594545666",
        "Phone": "+15615090492",
        "Street": "10921 S. Jog Road",
        "City": "Boynton Beach",
        "State": "FL",
        "ZIP": 33437
    },
    {
        "name": "Powerline Road",
        "AttWeb": "https://www.att.com/stores/florida/boca-raton/95375",
        "latitude": 26.3486354108147,
        "longitude": -80.15445962548256,
        "GMap": "https://maps.google.com/maps?cid=11701070403396553430",
        "Phone": "+15619480782",
        "Street": "22119 Powerline Rd",
        "City": "Boca Raton",
        "State": "FL",
        "ZIP": 33433
    },
    {
        "name": "North Miami Beach",
        "AttWeb": "https://www.att.com/stores/florida/north-miami-beach/176166",
        "latitude": 25.911748,
        "longitude": -80.155769,
        "GMap": "https://maps.google.com/maps?cid=16986806832259940371",
        "Phone": "+13057602558",
        "Street": "14661 Biscayne Blvd",
        "City": "North Miami Beach",
        "State": "FL",
        "ZIP": 33181
    },
    {
        "name": "Deerfield Mall",
        "AttWeb": "https://www.att.com/stores/florida/deerfield-beach/110797",
        "latitude": 26.315817434547114,
        "longitude": -80.1589871942997,
        "GMap": "https://maps.google.com/maps?cid=2599739802013737661",
        "Phone": "+19545717914",
        "Street": "3980 W Hillsboro Blvd",
        "City": "Deerfield Beach",
        "State": "FL",
        "ZIP": 33442
    },
    {
        "name": "North Miami",
        "AttWeb": "https://www.att.com/stores/florida/north-miami/92135",
        "latitude": 25.892355082536785,
        "longitude": -80.1625553584156,
        "GMap": "https://maps.google.com/maps?cid=15589813004372734910",
        "Phone": "+13058914822",
        "Street": "12599 Biscayne Blvd",
        "City": "North Miami",
        "State": "FL",
        "ZIP": 33181
    },
    {
        "name": "Key Biscayne",
        "AttWeb": "https://www.att.com/stores/florida/key-biscayne/36530",
        "latitude": 25.699790369639217,
        "longitude": -80.16330268953772,
        "GMap": "https://maps.google.com/maps?cid=5747016949653124595",
        "Phone": "+13053610107",
        "Street": "57 Harbor Dr",
        "City": "Key Biscayne",
        "State": "FL",
        "ZIP": 33149
    },
    {
        "name": "Key Biscayne",
        "AttWeb": "https://www.att.com/stores/florida/key-biscayne/177094",
        "latitude": 25.6887088,
        "longitude": -80.1641459,
        "GMap": "https://maps.google.com/maps?cid=986347533159346984",
        "Phone": "+17866325181",
        "Street": "650 Crandon Blvd",
        "City": "Key Biscayne",
        "State": "FL",
        "ZIP": 33149
    },
    {
        "name": "Dania Beach",
        "AttWeb": "https://www.att.com/stores/florida/ft-lauderdale/176153",
        "latitude": 26.0624616,
        "longitude": -80.17491199999999,
        "GMap": "https://maps.google.com/maps?cid=14039626447524115969",
        "Phone": "+19543749063",
        "Street": "2600 Griffin Rd",
        "City": "Ft Lauderdale",
        "State": "FL",
        "ZIP": 33312
    },
    {
        "name": "Hollywood",
        "AttWeb": "https://www.att.com/stores/florida/hollywood/120539",
        "latitude": 26.0114259,
        "longitude": -80.1751648,
        "GMap": "https://maps.google.com/maps?cid=2842506777933095331",
        "Phone": "+19546130411",
        "Street": "3273 Hollywood Blvd",
        "City": "Hollywood",
        "State": "FL",
        "ZIP": 33021
    },
    {
        "name": "North Ft Lauderdale",
        "AttWeb": "https://www.att.com/stores/florida/fort-lauderdale/199079",
        "latitude": 26.1875599552758,
        "longitude": -80.1757282018661,
        "GMap": "https://maps.google.com/maps?cid=10838727643469533875",
        "Phone": "+19543029168",
        "Street": "2400 W Commercial Blvd",
        "City": "Fort Lauderdale",
        "State": "FL",
        "ZIP": 33309
    },
    {
        "name": "Park Sheridan Plaza",
        "AttWeb": "https://www.att.com/stores/florida/hollywood/2598",
        "latitude": 26.03342804659383,
        "longitude": -80.17637863755226,
        "GMap": "https://maps.google.com/maps?cid=8763769418247556580",
        "Phone": "+19548942926",
        "Street": "3353-B Sheridan St",
        "City": "Hollywood",
        "State": "FL",
        "ZIP": 33021
    },
    {
        "name": "AT&T Store Fort Lauderdale 2610 W Broward Blvd",
        "AttWeb": "https://www.att.com/stores/florida/fort-lauderdale/213547",
        "latitude": 26.121306621136327,
        "longitude": -80.17651924479199,
        "GMap": "https://maps.google.com/maps?cid=5906170555489627787",
        "Phone": "+17542234943",
        "Street": "2610 W Broward Blvd",
        "City": "Fort Lauderdale",
        "State": "FL",
        "ZIP": 33312
    },
    {
        "name": "Shoppes at Andros Isle",
        "AttWeb": "https://www.att.com/stores/florida/west-palm-beach/121071",
        "latitude": 26.71033,
        "longitude": -80.1835058,
        "GMap": "https://maps.google.com/maps?cid=13923443202188164317",
        "Phone": "+15612497743",
        "Street": "8983 Okeechobee Blvd",
        "City": "West Palm Beach",
        "State": "FL",
        "ZIP": 33411
    },
    {
        "name": "Biscayne Boulevard -",
        "AttWeb": "https://www.att.com/stores/florida/miami/176160",
        "latitude": 25.83929,
        "longitude": -80.18459,
        "GMap": "https://maps.google.com/maps?cid=13438401036636363597",
        "Phone": "+13057706360",
        "Street": "6916 Biscayne Blvd",
        "City": "Miami",
        "State": "FL",
        "ZIP": 33138
    },
    {
        "name": "Cobblestone Commons Sc",
        "AttWeb": "https://www.att.com/stores/florida/boynton-beach/177093",
        "latitude": 26.528379,
        "longitude": -80.185095,
        "GMap": "https://maps.google.com/maps?cid=7501153763649288999",
        "Phone": "+15614861778",
        "Street": "8773 Boynton Beach Blvd",
        "City": "Boynton Beach",
        "State": "FL",
        "ZIP": 33472
    },
    {
        "name": "Lyons Road",
        "AttWeb": "https://www.att.com/stores/florida/delray-beach/106811",
        "latitude": 26.4556162,
        "longitude": -80.1892282,
        "GMap": "https://maps.google.com/maps?cid=8523643521001707083",
        "Phone": "+15612216177",
        "Street": "14851 Lyons Road",
        "City": "Delray Beach",
        "State": "FL",
        "ZIP": 33446
    },
    {
        "name": "Downtown",
        "AttWeb": "https://www.att.com/stores/florida/miami/242",
        "latitude": 25.773261673336574,
        "longitude": -80.18925311261768,
        "GMap": "https://maps.google.com/maps?cid=8297520138642798571",
        "Phone": "+13053772314",
        "Street": "250 SE 1st St",
        "City": "Miami",
        "State": "FL",
        "ZIP": 33131
    },
    {
        "name": "18th Street",
        "AttWeb": "https://www.att.com/stores/florida/miami/116110",
        "latitude": 25.793291965320286,
        "longitude": -80.18940010984295,
        "GMap": "https://maps.google.com/maps?cid=16407828023188121118",
        "Phone": "+13059011835",
        "Street": "1790 Biscayne Blvd",
        "City": "Miami",
        "State": "FL",
        "ZIP": 33132
    },
    {
        "name": "Miami Shores",
        "AttWeb": "https://www.att.com/stores/florida/miami-shores/177081",
        "latitude": 25.86327972580457,
        "longitude": -80.19320949565991,
        "GMap": "https://maps.google.com/maps?cid=5648225769536738425",
        "Phone": "+17866274203",
        "Street": "9533 NE 2nd Ave",
        "City": "Miami Shores",
        "State": "FL",
        "ZIP": 33138
    },
    {
        "name": "The Shops at Mary Brickell Village",
        "AttWeb": "https://www.att.com/stores/florida/miami/94267",
        "latitude": 25.765223,
        "longitude": -80.193528,
        "GMap": "https://maps.google.com/maps?cid=6871448779453755308",
        "Phone": "+13053736103",
        "Street": "900 S. Miami Ave",
        "City": "Miami",
        "State": "FL",
        "ZIP": 33130
    },
    {
        "name": "Midtown Miami",
        "AttWeb": "https://www.att.com/stores/florida/miami/91091",
        "latitude": 25.8066039,
        "longitude": -80.1948943,
        "GMap": "https://maps.google.com/maps?cid=8643282981570667529",
        "Phone": "+13055730136",
        "Street": "3101 N Miami Ave",
        "City": "Miami",
        "State": "FL",
        "ZIP": 33127
    },
    {
        "name": "Margate",
        "AttWeb": "https://www.att.com/stores/florida/margate/118702",
        "latitude": 26.236625566451075,
        "longitude": -80.2001540760574,
        "GMap": "https://maps.google.com/maps?cid=14934752927263507339",
        "Phone": "+19549359599",
        "Street": "5417 W Atlantic Blvd",
        "City": "Margate",
        "State": "FL",
        "ZIP": 33063
    },
    {
        "name": "Coconut Creek",
        "AttWeb": "https://www.att.com/stores/florida/coconut-creek/176158",
        "latitude": 26.3169576,
        "longitude": -80.20068069999999,
        "GMap": "https://maps.google.com/maps?cid=10803108600804890330",
        "Phone": "+17546005341",
        "Street": "6970 N State Road 7",
        "City": "Coconut Creek",
        "State": "FL",
        "ZIP": 33073
    },
    {
        "name": "The Reserve",
        "AttWeb": "https://www.att.com/stores/florida/boca-raton/43836",
        "latitude": 26.407321976665166,
        "longitude": -80.20147600000001,
        "GMap": "https://maps.google.com/maps?cid=2507723747317707451",
        "Phone": "+15614770445",
        "Street": "9858 Clint Moore Rd",
        "City": "Boca Raton",
        "State": "FL",
        "ZIP": 33496
    },
    {
        "name": "Boca West",
        "AttWeb": "https://www.att.com/stores/florida/boca-raton/91916",
        "latitude": 26.366158397947554,
        "longitude": -80.20236790180206,
        "GMap": "https://maps.google.com/maps?cid=11805078201508897930",
        "Phone": "+15618830633",
        "Street": "9924 Glades Road",
        "City": "Boca Raton",
        "State": "FL",
        "ZIP": 33434
    },
    {
        "name": "Coral Springs Turtle Crossing",
        "AttWeb": "https://www.att.com/stores/florida/coral-springs/81433",
        "latitude": 26.28363106739392,
        "longitude": -80.20263075828552,
        "GMap": "https://maps.google.com/maps?cid=1244116976684403219",
        "Phone": "+19547967847",
        "Street": "4240 N State Rd 7",
        "City": "Coral Springs",
        "State": "FL",
        "ZIP": 33073
    },
    {
        "name": "Wellington",
        "AttWeb": "https://www.att.com/stores/florida/wellington/1050",
        "latitude": 26.6771583,
        "longitude": -80.2033081,
        "GMap": "https://maps.google.com/maps?cid=7181458053334619400",
        "Phone": "+15613836325",
        "Street": "117 S State Road 7",
        "City": "Wellington",
        "State": "FL",
        "ZIP": 33414
    },
    {
        "name": "Ives Dairy Crossing",
        "AttWeb": "https://www.att.com/stores/florida/miami-gardens/176164",
        "latitude": 25.9587817,
        "longitude": -80.20396029999999,
        "GMap": "https://maps.google.com/maps?cid=12157548387486283701",
        "Phone": "+17866042344",
        "Street": "19975 NW 2nd Ave",
        "City": "Miami Gardens",
        "State": "FL",
        "ZIP": 33169
    },
    {
        "name": "South State Road 7",
        "AttWeb": "https://www.att.com/stores/florida/lake-worth/158482",
        "latitude": 26.59227110365196,
        "longitude": -80.20466820341653,
        "GMap": "https://maps.google.com/maps?cid=13285378864601178328",
        "Phone": "+15618292333",
        "Street": "5940 South State Road 7",
        "City": "Lake Worth",
        "State": "FL",
        "ZIP": 33449
    },
    {
        "name": "Wellington Green Commons",
        "AttWeb": "https://www.att.com/stores/florida/wellington/81434",
        "latitude": 26.643153977733164,
        "longitude": -80.20539782667555,
        "GMap": "https://maps.google.com/maps?cid=16081900517248436757",
        "Phone": "+15617933682",
        "Street": "2545 Sr 7",
        "City": "Wellington",
        "State": "FL",
        "ZIP": 33414
    },
    {
        "name": "The Place at Hollywood",
        "AttWeb": "https://www.att.com/stores/florida/hollywood/179123",
        "latitude": 26.00674540712005,
        "longitude": -80.20689319618016,
        "GMap": "https://maps.google.com/maps?cid=15416460408415221017",
        "Phone": "+19549895648",
        "Street": "333B South Sr 7",
        "City": "Hollywood",
        "State": "FL",
        "ZIP": 33023
    },
    {
        "name": "The Mall at Wellington Green",
        "AttWeb": "https://www.att.com/stores/florida/wellington/103350",
        "latitude": 26.647278,
        "longitude": -80.2086969,
        "GMap": "https://maps.google.com/maps?cid=741982180964856676",
        "Phone": "+15614227930",
        "Street": "10300 W Forest Hill Blvd",
        "City": "Wellington",
        "State": "FL",
        "ZIP": 33414
    },
    {
        "name": "Coral Landings II",
        "AttWeb": "https://www.att.com/stores/florida/coral-springs/176175",
        "latitude": 26.2732896,
        "longitude": -80.2105196,
        "GMap": "https://maps.google.com/maps?cid=987513173096034159",
        "Phone": "+17542296210",
        "Street": "6290 W Sample Rd",
        "City": "Coral Springs",
        "State": "FL",
        "ZIP": 33067
    },
    {
        "name": "Calle Ocho",
        "AttWeb": "https://www.att.com/stores/florida/miami/177074",
        "latitude": 25.76611331469138,
        "longitude": -80.21499599999999,
        "GMap": "https://maps.google.com/maps?cid=12859996191446342618",
        "Phone": "+13058779037",
        "Street": "1221 SW 8th Street",
        "City": "Miami",
        "State": "FL",
        "ZIP": 33135
    },
    {
        "name": "Se Federal Highway",
        "AttWeb": "https://www.att.com/stores/florida/stuart/199077",
        "latitude": 27.1539993,
        "longitude": -80.2180938,
        "GMap": "https://maps.google.com/maps?cid=5890436753442180689",
        "Phone": "+17722385263",
        "Street": "4255 SE Federal Hwy",
        "City": "Stuart",
        "State": "FL",
        "ZIP": 34997
    },
    {
        "name": "River Landing",
        "AttWeb": "https://www.att.com/stores/florida/miami/161294",
        "latitude": 25.7856423,
        "longitude": -80.2196781,
        "GMap": "https://maps.google.com/maps?cid=17487433328006338525",
        "Phone": "+13054283138",
        "Street": "1440 NW North River Dr",
        "City": "Miami",
        "State": "FL",
        "ZIP": 33125
    },
    {
        "name": "Royal Palm Beach",
        "AttWeb": "https://www.att.com/stores/florida/royal-palm-beach/122837",
        "latitude": 26.6815105,
        "longitude": -80.2203422,
        "GMap": "https://maps.google.com/maps?cid=1438167697496104066",
        "Phone": "+15613281208",
        "Street": "11081 Southern Blvd",
        "City": "Royal Palm Beach",
        "State": "FL",
        "ZIP": 33411
    },
    {
        "name": "Nova Drive",
        "AttWeb": "https://www.att.com/stores/florida/davie/158481",
        "latitude": 26.0871903,
        "longitude": -80.2300661,
        "GMap": "https://maps.google.com/maps?cid=16228522031117639823",
        "Phone": "+19543700222",
        "Street": "6501 Nova Drive",
        "City": "Davie",
        "State": "FL",
        "ZIP": 33317
    },
    {
        "name": "North Lauderdale",
        "AttWeb": "https://www.att.com/stores/florida/north-lauderdale/205189",
        "latitude": 26.2082681,
        "longitude": -80.2309549,
        "GMap": "https://maps.google.com/maps?cid=4938823289464164891",
        "Phone": "+19545976527",
        "Street": "7736 W. McNab Rd",
        "City": "North Lauderdale",
        "State": "FL",
        "ZIP": 33068
    },
    {
        "name": "Stuart",
        "AttWeb": "https://www.att.com/stores/florida/stuart/121063",
        "latitude": 27.1763409,
        "longitude": -80.2337347,
        "GMap": "https://maps.google.com/maps?cid=7967402696731767273",
        "Phone": "+17722106288",
        "Street": "2379 SE Federal Hwy",
        "City": "Stuart",
        "State": "FL",
        "ZIP": 34994
    },
    {
        "name": "Grove Station",
        "AttWeb": "https://www.att.com/stores/florida/miami/47095",
        "latitude": 25.738889824094144,
        "longitude": -80.23964508292136,
        "GMap": "https://maps.google.com/maps?cid=7292645985219274149",
        "Phone": "+13054459792",
        "Street": "2720 S Dixie Hwy",
        "City": "Miami",
        "State": "FL",
        "ZIP": 33133
    },
    {
        "name": "Coconut Grove",
        "AttWeb": "https://www.att.com/stores/florida/coconut-grove/45292",
        "latitude": 25.7281257,
        "longitude": -80.2456358,
        "GMap": "https://maps.google.com/maps?cid=109650929692327839",
        "Phone": "+13054466666",
        "Street": "3201 Grand Ave",
        "City": "Coconut Grove",
        "State": "FL",
        "ZIP": 33133
    },
    {
        "name": "Davie Store",
        "AttWeb": "https://www.att.com/stores/florida/davie/1022",
        "latitude": 26.0955774,
        "longitude": -80.249383,
        "GMap": "https://maps.google.com/maps?cid=2082024825875005923",
        "Phone": "+19544734004",
        "Street": "1920 S University Dr",
        "City": "Davie",
        "State": "FL",
        "ZIP": 33324
    },
    {
        "name": "University Drive",
        "AttWeb": "https://www.att.com/stores/florida/coral-springs/1435",
        "latitude": 26.258615841991436,
        "longitude": -80.25078017842577,
        "GMap": "https://maps.google.com/maps?cid=3649569094931916766",
        "Phone": "+19547534422",
        "Street": "2204 University Dr",
        "City": "Coral Springs",
        "State": "FL",
        "ZIP": 33071
    },
    {
        "name": "University Drive",
        "AttWeb": "https://www.att.com/stores/florida/davie/103292",
        "latitude": 26.0484232,
        "longitude": -80.2510889,
        "GMap": "https://maps.google.com/?cid=17398475123490528576",
        "Phone": "+19549063341",
        "Street": "5780 South University Dr",
        "City": "Davie",
        "State": "FL",
        "ZIP": 33328
    },
    {
        "name": "North Springs",
        "AttWeb": "https://www.att.com/stores/florida/coral-springs/116957",
        "latitude": 26.29936687538687,
        "longitude": -80.25140820866272,
        "GMap": "https://maps.google.com/maps?cid=4918078737976699000",
        "Phone": "+17542065998",
        "Street": "9519 Westview Drive",
        "City": "Coral Springs",
        "State": "FL",
        "ZIP": 33076
    },
    {
        "name": "Fountains",
        "AttWeb": "https://www.att.com/stores/florida/plantation/103348",
        "latitude": 26.110618291590512,
        "longitude": -80.252108936794,
        "GMap": "https://maps.google.com/?cid=17617666420008235365",
        "Phone": "+19549470953",
        "Street": "801 S. University Drive",
        "City": "Plantation",
        "State": "FL",
        "ZIP": 33324
    },
    {
        "name": "West Sunrise Boulevard",
        "AttWeb": "https://www.att.com/stores/florida/plantation/122616",
        "latitude": 26.14800786860232,
        "longitude": -80.25552037683667,
        "GMap": "https://maps.google.com/maps?cid=1126937611162917155",
        "Phone": "+19549061482",
        "Street": "7900 W Sunrise Blvd",
        "City": "Plantation",
        "State": "FL",
        "ZIP": 33322
    },
    {
        "name": "Coral Gables",
        "AttWeb": "https://www.att.com/stores/florida/coral-gables/118716",
        "latitude": 25.7515597,
        "longitude": -80.2585433,
        "GMap": "https://maps.google.com/maps?cid=10409647052931996166",
        "Phone": "+13054439933",
        "Street": "2261 Ponce De Leon",
        "City": "Coral Gables",
        "State": "FL",
        "ZIP": 33134
    },
    {
        "name": "Miracle Mile",
        "AttWeb": "https://www.att.com/stores/florida/coral-gables/76119",
        "latitude": 25.7497564,
        "longitude": -80.2590944,
        "GMap": "https://maps.google.com/maps?cid=4649118277917704518",
        "Phone": "+13054455335",
        "Street": "215 Miracle Mile",
        "City": "Coral Gables",
        "State": "FL",
        "ZIP": 33134
    },
    {
        "name": "Keystone Shoppes",
        "AttWeb": "https://www.att.com/stores/florida/miami/161293",
        "latitude": 25.7729506,
        "longitude": -80.2639318,
        "GMap": "https://maps.google.com/maps?cid=13146663214134423418",
        "Phone": "+17866042374",
        "Street": "130 NW 42nd Avenue",
        "City": "Miami",
        "State": "FL",
        "ZIP": 33126
    },
    {
        "name": "Courtyard Shops at Wellington",
        "AttWeb": "https://www.att.com/stores/florida/wellington/43630",
        "latitude": 26.6614558,
        "longitude": -80.2656123,
        "GMap": "https://maps.google.com/maps?cid=14868592670732433339",
        "Phone": "+15613338284",
        "Street": "13860 Wellington Trace",
        "City": "Wellington",
        "State": "FL",
        "ZIP": 33414
    },
    {
        "name": "Pineapple Commons",
        "AttWeb": "https://www.att.com/stores/florida/stuart/121699",
        "latitude": 27.2357283,
        "longitude": -80.2680504,
        "GMap": "https://maps.google.com/maps?cid=16077592723396875631",
        "Phone": "+17722367030",
        "Street": "2511 NW Federal Hwy",
        "City": "Stuart",
        "State": "FL",
        "ZIP": 34994
    },
    {
        "name": "University of Miami",
        "AttWeb": "https://www.att.com/stores/florida/coral-gables/46774",
        "latitude": 25.71386660000001,
        "longitude": -80.2764103682373,
        "GMap": "https://maps.google.com/maps?cid=14142206742966762323",
        "Phone": "+13056687855",
        "Street": "1234 S Dixie Hwy",
        "City": "Coral Gables",
        "State": "FL",
        "ZIP": 33146
    },
    {
        "name": "Lakeview Center",
        "AttWeb": "https://www.att.com/stores/florida/coral-springs/158480",
        "latitude": 26.2477152,
        "longitude": -80.2801192,
        "GMap": "https://maps.google.com/maps?cid=1774993283084835482",
        "Phone": "+19545101797",
        "Street": "1300 Coral Ridge Drive",
        "City": "Coral Springs",
        "State": "FL",
        "ZIP": 33071
    },
    {
        "name": "Heron Bay",
        "AttWeb": "https://www.att.com/stores/florida/coral-springs/103354",
        "latitude": 26.307359523445594,
        "longitude": -80.28021707254271,
        "GMap": "https://maps.google.com/?cid=8618275730028776166",
        "Phone": "+19545101580",
        "Street": "6230 Coral Ridge Drive",
        "City": "Coral Springs",
        "State": "FL",
        "ZIP": 33076
    },
    {
        "name": "Miami Springs",
        "AttWeb": "https://www.att.com/stores/florida/miami-springs/110795",
        "latitude": 25.821896831465427,
        "longitude": -80.28147295117378,
        "GMap": "https://maps.google.com/maps?cid=16312663999986281683",
        "Phone": "+13058638711",
        "Street": "58 Curtiss Pkwy",
        "City": "Miami Springs",
        "State": "FL",
        "ZIP": 33166
    },
    {
        "name": "Plantation Promenade",
        "AttWeb": "https://www.att.com/stores/florida/plantation/47067",
        "latitude": 26.13513600421493,
        "longitude": -80.28474945797795,
        "GMap": "https://maps.google.com/maps?cid=10001242468836043712",
        "Phone": "+19543024496",
        "Street": "10095 Cleary Blvd",
        "City": "Plantation",
        "State": "FL",
        "ZIP": 33324
    },
    {
        "name": "Sunrise",
        "AttWeb": "https://www.att.com/stores/florida/sunrise/177096",
        "latitude": 26.171451,
        "longitude": -80.285513,
        "GMap": "https://maps.google.com/maps?cid=13645522155321427734",
        "Phone": "+19549288917",
        "Street": "10119 W Oakland Park Blvd",
        "City": "Sunrise",
        "State": "FL",
        "ZIP": 33351
    },
    {
        "name": "Sunrise",
        "AttWeb": "https://www.att.com/stores/florida/sunrise/103358",
        "latitude": 26.194295474279183,
        "longitude": -80.28640886011885,
        "GMap": "https://maps.google.com/?cid=15957649313354998718",
        "Phone": "+19547263787",
        "Street": "10181 W Commercial Blvd",
        "City": "Sunrise",
        "State": "FL",
        "ZIP": 33351
    },
    {
        "name": "Pines City Center",
        "AttWeb": "https://www.att.com/stores/florida/pembroke-pines/176156",
        "latitude": 26.007866953458073,
        "longitude": -80.2876974403875,
        "GMap": "https://maps.google.com/maps?cid=9148756648509127696",
        "Phone": "+19544308898",
        "Street": "10630 Pines Blvd",
        "City": "Pembroke Pines",
        "State": "FL",
        "ZIP": 33026
    },
    {
        "name": "Red Bird Center",
        "AttWeb": "https://www.att.com/stores/florida/miami/114806",
        "latitude": 25.73445160322674,
        "longitude": -80.28869123297662,
        "GMap": "https://maps.google.com/maps?cid=5340375019778610905",
        "Phone": "+13055702342",
        "Street": "5781 SW 40th St",
        "City": "Miami",
        "State": "FL",
        "ZIP": 33155
    },
    {
        "name": "Miami Airpark",
        "AttWeb": "https://www.att.com/stores/florida/miami/103361",
        "latitude": 25.780015017001574,
        "longitude": -80.28888653372957,
        "GMap": "https://maps.google.com/?cid=516035605802467390",
        "Phone": "+13054030555",
        "Street": "5707 NW 7th St",
        "City": "Miami",
        "State": "FL",
        "ZIP": 33126
    },
    {
        "name": "Palmetto Lakes Center",
        "AttWeb": "https://www.att.com/stores/florida/miami-lakes/79501",
        "latitude": 25.9229372,
        "longitude": -80.2926623,
        "GMap": "https://maps.google.com/maps?cid=12186339249786945287",
        "Phone": "+13056226300",
        "Street": "5644 NW 167th Street",
        "City": "Miami Lakes",
        "State": "FL",
        "ZIP": 33014
    },
    {
        "name": "Loxahatchee",
        "AttWeb": "https://www.att.com/stores/florida/loxahatchee/12857",
        "latitude": 26.781697354049737,
        "longitude": -80.29299805287246,
        "GMap": "https://maps.google.com/maps?cid=13057046060846684075",
        "Phone": "+15617912976",
        "Street": "7040 Seminole Pratt Whitney Rd",
        "City": "Loxahatchee",
        "State": "FL",
        "ZIP": 33470
    },
    {
        "name": "Palm Springs Mile",
        "AttWeb": "https://www.att.com/stores/florida/hialeah/117378",
        "latitude": 25.86706512271813,
        "longitude": -80.29444355554197,
        "GMap": "https://maps.google.com/maps?cid=17775025588047133378",
        "Phone": "+17866070870",
        "Street": "597 W 49th St",
        "City": "Hialeah",
        "State": "FL",
        "ZIP": 33012
    },
    {
        "name": "Palm City",
        "AttWeb": "https://www.att.com/stores/florida/palm-city/78788",
        "latitude": 27.17070892835958,
        "longitude": -80.29582545161242,
        "GMap": "https://maps.google.com/maps?cid=3017439512613143357",
        "Phone": "+17724032300",
        "Street": "3108 SW Martin Downs Blvd",
        "City": "Palm City",
        "State": "FL",
        "ZIP": 34990
    },
    {
        "name": "Palm Springs Mile",
        "AttWeb": "https://www.att.com/stores/florida/hialeah/1026",
        "latitude": 25.867129,
        "longitude": -80.2962457,
        "GMap": "https://maps.google.com/maps?cid=3895202809303137443",
        "Phone": "+13055564849",
        "Street": "663 W 49th St",
        "City": "Hialeah",
        "State": "FL",
        "ZIP": 33012
    },
    {
        "name": "Pines Plaza",
        "AttWeb": "https://www.att.com/stores/florida/pembroke-pines/94547",
        "latitude": 26.007166989185816,
        "longitude": -80.2997975867375,
        "GMap": "https://maps.google.com/maps?cid=12596877891816917843",
        "Phone": "+19544307052",
        "Street": "11380 Pines Boulevard",
        "City": "Pembroke Pines",
        "State": "FL",
        "ZIP": 33026
    },
    {
        "name": "Dadeland Point",
        "AttWeb": "https://www.att.com/stores/florida/miami/2140",
        "latitude": 25.688200974720278,
        "longitude": -80.30857260425825,
        "GMap": "https://maps.google.com/maps?cid=997498224563664864",
        "Phone": "+17862687400",
        "Street": "8821 S Dixie Hwy",
        "City": "Miami",
        "State": "FL",
        "ZIP": 33156
    },
    {
        "name": "Village Shopping Center",
        "AttWeb": "https://www.att.com/stores/florida/hialeah/45462",
        "latitude": 25.8655761,
        "longitude": -80.3110206,
        "GMap": "https://maps.google.com/maps?cid=2221836072650754509",
        "Phone": "+13058214000",
        "Street": "1448 W. 49th Street",
        "City": "Hialeah",
        "State": "FL",
        "ZIP": 33012
    },
    {
        "name": "Cooper City",
        "AttWeb": "https://www.att.com/stores/florida/cooper-city/208796",
        "latitude": 26.047279,
        "longitude": -80.3111292,
        "GMap": "https://maps.google.com/maps?cid=2322762876042462147",
        "Phone": "+19544400268",
        "Street": "5650 S Flamingo Rd",
        "City": "Cooper City",
        "State": "FL",
        "ZIP": 33330
    },
    {
        "name": "West Sunrise Boulevard",
        "AttWeb": "https://www.att.com/stores/florida/plantation/1827",
        "latitude": 26.146412900586487,
        "longitude": -80.3111743927002,
        "GMap": "https://maps.google.com/maps?cid=6743504812608406533",
        "Phone": "+19544745252",
        "Street": "12231 W Sunrise Blvd",
        "City": "Plantation",
        "State": "FL",
        "ZIP": 33323
    },
    {
        "name": "Main Street Shopping Center",
        "AttWeb": "https://www.att.com/stores/florida/miami-lakes/45013",
        "latitude": 25.912810993404637,
        "longitude": -80.31157538294786,
        "GMap": "https://maps.google.com/maps?cid=7683223570871556521",
        "Phone": "+13058277888",
        "Street": "6832 Main Street",
        "City": "Miami Lakes",
        "State": "FL",
        "ZIP": 33014
    },
    {
        "name": "Port St Lucie",
        "AttWeb": "https://www.att.com/stores/florida/port-st-lucie/95628",
        "latitude": 27.273343639211056,
        "longitude": -80.31686435514393,
        "GMap": "https://maps.google.com/maps?cid=14379593906421007235",
        "Phone": "+17722493202",
        "Street": "1095 SE Port Saint Lucie Blvd",
        "City": "Port St Lucie",
        "State": "FL",
        "ZIP": 34952
    },
    {
        "name": "Bird Road",
        "AttWeb": "https://www.att.com/stores/florida/miami/107032",
        "latitude": 25.733401521161582,
        "longitude": -80.31958982348442,
        "GMap": "https://maps.google.com/maps?cid=5967232246425633631",
        "Phone": "+13052617587",
        "Street": "7711 SW 40th Street",
        "City": "Miami",
        "State": "FL",
        "ZIP": 33155
    },
    {
        "name": "Mall of Americas Flagler",
        "AttWeb": "https://www.att.com/stores/florida/miami/95329",
        "latitude": 25.7704437,
        "longitude": -80.3231508,
        "GMap": "https://maps.google.com/maps?cid=15373526879975738926",
        "Phone": "+13052611338",
        "Street": "7703 West Flagler Street",
        "City": "Miami",
        "State": "FL",
        "ZIP": 33144
    },
    {
        "name": "Sunnyland",
        "AttWeb": "https://www.att.com/stores/florida/miami/75916",
        "latitude": 25.6611134,
        "longitude": -80.3252722,
        "GMap": "https://maps.google.com/maps?cid=8615369529800888389",
        "Phone": "+13052597750",
        "Street": "11769 S. Dixie Hwy",
        "City": "Miami",
        "State": "FL",
        "ZIP": 33156
    },
    {
        "name": "Pinecrest",
        "AttWeb": "https://www.att.com/stores/florida/miami/177095",
        "latitude": 25.654302154372186,
        "longitude": -80.32875199998264,
        "GMap": "https://maps.google.com/maps?cid=866072621262913025",
        "Phone": "+13059799679",
        "Street": "12451 South Dixie Hwy",
        "City": "Miami",
        "State": "FL",
        "ZIP": 33156
    },
    {
        "name": "Shenandoah Square",
        "AttWeb": "https://www.att.com/stores/florida/davie/123859",
        "latitude": 26.11652217,
        "longitude": -80.33094033,
        "GMap": "https://maps.google.com/maps?cid=11401451627547375042",
        "Phone": "+19549554060",
        "Street": "13608 W State Road 84",
        "City": "Davie",
        "State": "FL",
        "ZIP": 33325
    },
    {
        "name": "Pembroke Pines",
        "AttWeb": "https://www.att.com/stores/florida/pembroke-pines/123858",
        "latitude": 26.0058326,
        "longitude": -80.3337936,
        "GMap": "https://maps.google.com/maps?cid=12743243817849507292",
        "Phone": "+19549979344",
        "Street": "304 SW 145th Ave",
        "City": "Pembroke Pines",
        "State": "FL",
        "ZIP": 33027
    },
    {
        "name": "Coral Way Plaza",
        "AttWeb": "https://www.att.com/stores/florida/miami/122615",
        "latitude": 25.749231455568292,
        "longitude": -80.33639879017835,
        "GMap": "https://maps.google.com/maps?cid=3212811862227043854",
        "Phone": "+13053228985",
        "Street": "8727 SW 24th St",
        "City": "Miami",
        "State": "FL",
        "ZIP": 33165
    },
    {
        "name": "Old Cutler Town Center",
        "AttWeb": "https://www.att.com/stores/florida/miami/45491",
        "latitude": 25.57673132422423,
        "longitude": -80.33678144216532,
        "GMap": "https://maps.google.com/maps?cid=15980275262447241999",
        "Phone": "+13059693996",
        "Street": "20439 Old Cutler Rd",
        "City": "Miami",
        "State": "FL",
        "ZIP": 33189
    },
    {
        "name": "Nw 87th Avenue",
        "AttWeb": "https://www.att.com/stores/florida/doral/118401",
        "latitude": 25.819334372882157,
        "longitude": -80.33716915133778,
        "GMap": "https://maps.google.com/maps?cid=6430711402580882013",
        "Phone": "+13057944966",
        "Street": "5241 NW 87th Ave",
        "City": "Doral",
        "State": "FL",
        "ZIP": 33178
    },
    {
        "name": "The Falls",
        "AttWeb": "https://www.att.com/stores/florida/miami/103382",
        "latitude": 25.64545934386594,
        "longitude": -80.34007022453693,
        "GMap": "https://maps.google.com/maps?cid=2360402133080496247",
        "Phone": "+13052550153",
        "Street": "8888 SW 136 St",
        "City": "Miami",
        "State": "FL",
        "ZIP": 33176
    },
    {
        "name": "Coral Reef Plaza",
        "AttWeb": "https://www.att.com/stores/florida/miami/80457",
        "latitude": 25.627804213417765,
        "longitude": -80.34123912706565,
        "GMap": "https://maps.google.com/maps?cid=6695783232586860937",
        "Phone": "+13052348899",
        "Street": "15327 S. Dixie Hwy",
        "City": "Miami",
        "State": "FL",
        "ZIP": 33157
    },
    {
        "name": "Miami Gardens",
        "AttWeb": "https://www.att.com/stores/florida/miami-gardens/103360",
        "latitude": 25.9437671,
        "longitude": -80.3419606,
        "GMap": "https://maps.google.com/?cid=50499150927817246",
        "Phone": "+13058290007",
        "Street": "8649 NW 186th St",
        "City": "Miami Gardens",
        "State": "FL",
        "ZIP": 33015
    },
    {
        "name": "West Flagler Street",
        "AttWeb": "https://www.att.com/stores/florida/miami/115954",
        "latitude": 25.769662125699323,
        "longitude": -80.3462851693115,
        "GMap": "https://maps.google.com/maps?cid=2839826746686559320",
        "Phone": "+13052204300",
        "Street": "9231 W. Flagler Street",
        "City": "Miami",
        "State": "FL",
        "ZIP": 33174
    },
    {
        "name": "Hialeah Gardens",
        "AttWeb": "https://www.att.com/stores/florida/hialeah/117380",
        "latitude": 25.8926037,
        "longitude": -80.3505836,
        "GMap": "https://maps.google.com/maps?cid=4935298114311012150",
        "Phone": "+13055173775",
        "Street": "7725 W 33rd Ave",
        "City": "Hialeah",
        "State": "FL",
        "ZIP": 33018
    },
    {
        "name": "South Dade Shopping Center",
        "AttWeb": "https://www.att.com/stores/florida/miami/44091",
        "latitude": 25.5973984,
        "longitude": -80.3509142,
        "GMap": "https://maps.google.com/maps?cid=1171362332458741682",
        "Phone": "+13052780700",
        "Street": "18477 S Dixie Hwy",
        "City": "Miami",
        "State": "FL",
        "ZIP": 33157
    },
    {
        "name": "Olympia Heights",
        "AttWeb": "https://www.att.com/stores/florida/miami/176163",
        "latitude": 25.732318210788396,
        "longitude": -80.35595541159734,
        "GMap": "https://maps.google.com/maps?cid=6387117914803322380",
        "Phone": "+13059083698",
        "Street": "9900 SW 40th Street",
        "City": "Miami",
        "State": "FL",
        "ZIP": 33165
    },
    {
        "name": "West Fork",
        "AttWeb": "https://www.att.com/stores/florida/pembroke-pines/13289",
        "latitude": 26.009396618649095,
        "longitude": -80.35607836938095,
        "GMap": "https://maps.google.com/maps?cid=6081971357827872087",
        "Phone": "+19544371234",
        "Street": "15731 Pines Blvd",
        "City": "Pembroke Pines",
        "State": "FL",
        "ZIP": 33027
    },
    {
        "name": "South Dixie Highway -",
        "AttWeb": "https://www.att.com/stores/florida/miami/176161",
        "latitude": 25.5907367,
        "longitude": -80.35696449999999,
        "GMap": "https://maps.google.com/maps?cid=9906933251688644855",
        "Phone": "+13055826300",
        "Street": "19103 S Dixie Hwy",
        "City": "Miami",
        "State": "FL",
        "ZIP": 33157
    },
    {
        "name": "Doral Store",
        "AttWeb": "https://www.att.com/stores/florida/miami/1586",
        "latitude": 25.812162764992706,
        "longitude": -80.35845219781788,
        "GMap": "https://maps.google.com/maps?cid=971523126717462154",
        "Phone": "+17868450066",
        "Street": "10003 NW 41st St",
        "City": "Miami",
        "State": "FL",
        "ZIP": 33178
    },
    {
        "name": "Miramar",
        "AttWeb": "https://www.att.com/stores/florida/miramar/176977",
        "latitude": 25.981162,
        "longitude": -80.358837,
        "GMap": "https://maps.google.com/maps?cid=103953508125253678",
        "Phone": "+19544508055",
        "Street": "2965 Southwest 160th Avenue",
        "City": "Miramar",
        "State": "FL",
        "ZIP": 33027
    },
    {
        "name": "Weston",
        "AttWeb": "https://www.att.com/stores/florida/davie/119808",
        "latitude": 26.065362228231987,
        "longitude": -80.36130745767207,
        "GMap": "https://maps.google.com/maps?cid=672663811824560199",
        "Phone": "+19543842195",
        "Street": "4444 Weston Rd",
        "City": "Davie",
        "State": "FL",
        "ZIP": 33331
    },
    {
        "name": "Kendall Mall",
        "AttWeb": "https://www.att.com/stores/florida/miami/1057",
        "latitude": 25.684690654473524,
        "longitude": -80.36466300487518,
        "GMap": "https://maps.google.com/maps?cid=17655442029069104829",
        "Phone": "+13055989084",
        "Street": "8941 SW 107th Ave",
        "City": "Miami",
        "State": "FL",
        "ZIP": 33176
    },
    {
        "name": "University Office Center",
        "AttWeb": "https://www.att.com/stores/florida/miami/46368",
        "latitude": 25.7566475,
        "longitude": -80.3671945,
        "GMap": "https://maps.google.com/maps?cid=10686392182278527424",
        "Phone": "+13054859818",
        "Street": "1317 SW 107th Ave",
        "City": "Miami",
        "State": "FL",
        "ZIP": 33174
    },
    {
        "name": "Doral Commons",
        "AttWeb": "https://www.att.com/stores/florida/doral/118698",
        "latitude": 25.842114895180814,
        "longitude": -80.36788084528604,
        "GMap": "https://maps.google.com/maps?cid=4873724360515948750",
        "Phone": "+13056979666",
        "Street": "7520 NW 104th Ave",
        "City": "Doral",
        "State": "FL",
        "ZIP": 33178
    },
    {
        "name": "107th Avenue",
        "AttWeb": "https://www.att.com/stores/florida/miami/45306",
        "latitude": 25.7929786,
        "longitude": -80.36941,
        "GMap": "https://maps.google.com/maps?cid=2845904669384293173",
        "Phone": "+13054687944",
        "Street": "2086 NW 107th Ave",
        "City": "Miami",
        "State": "FL",
        "ZIP": 33172
    },
    {
        "name": "Waterway Shoppes",
        "AttWeb": "https://www.att.com/stores/florida/weston/123651",
        "latitude": 26.092484,
        "longitude": -80.3705923,
        "GMap": "https://maps.google.com/maps?cid=13613698782383642772",
        "Phone": "+19543492001",
        "Street": "2242 Weston Road",
        "City": "Weston",
        "State": "FL",
        "ZIP": 33326
    },
    {
        "name": "Fort Pierce",
        "AttWeb": "https://www.att.com/stores/florida/fort-pierce/117375",
        "latitude": 27.420052454001283,
        "longitude": -80.37774413824087,
        "GMap": "https://maps.google.com/maps?cid=13284603787192204970",
        "Phone": "+17722428536",
        "Street": "5200 Okeechobee Rd",
        "City": "Fort Pierce",
        "State": "FL",
        "ZIP": 34947
    },
    {
        "name": "West Bird Plaza",
        "AttWeb": "https://www.att.com/stores/florida/miami/41287",
        "latitude": 25.7336338,
        "longitude": -80.380091,
        "GMap": "https://maps.google.com/maps?cid=8298615847113204820",
        "Phone": "+13054874816",
        "Street": "11441 SW 40th Street",
        "City": "Miami",
        "State": "FL",
        "ZIP": 33165
    },
    {
        "name": "Kendall Value Shopping Center",
        "AttWeb": "https://www.att.com/stores/florida/miami/45502",
        "latitude": 25.701076833710236,
        "longitude": -80.38107889814762,
        "GMap": "https://maps.google.com/maps?cid=10456455758882477390",
        "Phone": "+13052717797",
        "Street": "7177 SW 117th Ave",
        "City": "Miami",
        "State": "FL",
        "ZIP": 33183
    },
    {
        "name": "Weston",
        "AttWeb": "https://www.att.com/stores/florida/weston/177083",
        "latitude": 26.0975854,
        "longitude": -80.3814001,
        "GMap": "https://maps.google.com/maps?cid=3958684351967594407",
        "Phone": "+17542167485",
        "Street": "1736 Main Street",
        "City": "Weston",
        "State": "FL",
        "ZIP": 33326
    },
    {
        "name": "Treasure Coast Plaza",
        "AttWeb": "https://www.att.com/stores/florida/vero-beach/121061",
        "latitude": 27.639345758105527,
        "longitude": -80.38447313010693,
        "GMap": "https://maps.google.com/maps?cid=6959609565758142460",
        "Phone": "+17729995320",
        "Street": "2048 Treasure Coast Plaza",
        "City": "Vero Beach",
        "State": "FL",
        "ZIP": 32960
    },
    {
        "name": "Pines Boulevard",
        "AttWeb": "https://www.att.com/stores/florida/pembroke-pines/199076",
        "latitude": 26.0092844,
        "longitude": -80.3905219,
        "GMap": "https://maps.google.com/maps?cid=1525217367061747754",
        "Phone": "+19543029171",
        "Street": "18275 Pines Blvd",
        "City": "Pembroke Pines",
        "State": "FL",
        "ZIP": 33029
    },
    {
        "name": "Port Street Lucie",
        "AttWeb": "https://www.att.com/stores/florida/port-st.-lucie/68141",
        "latitude": 27.315854437666818,
        "longitude": -80.39100712224644,
        "GMap": "https://maps.google.com/maps?cid=8747700288441648018",
        "Phone": "+17723403127",
        "Street": "1395 NW St. Lucie West Blvd",
        "City": "Port St. Lucie",
        "State": "FL",
        "ZIP": 34986
    },
    {
        "name": "Kendallgate Shopping Center",
        "AttWeb": "https://www.att.com/stores/florida/miami/2931",
        "latitude": 25.6857108,
        "longitude": -80.3936328,
        "GMap": "https://maps.google.com/maps?cid=4210795940674864831",
        "Phone": "+13055982621",
        "Street": "12190 SW 88th St",
        "City": "Miami",
        "State": "FL",
        "ZIP": 33186
    },
    {
        "name": "Plaza del Paraiso",
        "AttWeb": "https://www.att.com/stores/florida/miami/18389",
        "latitude": 25.6562519,
        "longitude": -80.3997869,
        "GMap": "https://maps.google.com/maps?cid=12954032069360545802",
        "Phone": "+13052555557",
        "Street": "12030 SW 127th Ave",
        "City": "Miami",
        "State": "FL",
        "ZIP": 33186
    },
    {
        "name": "Us Highway 1",
        "AttWeb": "https://www.att.com/stores/florida/vero-beach/121698",
        "latitude": 27.687434026578483,
        "longitude": -80.41100546521727,
        "GMap": "https://maps.google.com/maps?cid=11001096264996567851",
        "Phone": "+17722174463",
        "Street": "5210 US Hwy 1",
        "City": "Vero Beach",
        "State": "FL",
        "ZIP": 32967
    },
    {
        "name": "London Square",
        "AttWeb": "https://www.att.com/stores/florida/miami/80359",
        "latitude": 25.6549188,
        "longitude": -80.4149706,
        "GMap": "https://maps.google.com/maps?cid=10328359915755972791",
        "Phone": "+13059692064",
        "Street": "13550 SW 120th St",
        "City": "Miami",
        "State": "FL",
        "ZIP": 33186
    },
    {
        "name": "Carter Square",
        "AttWeb": "https://www.att.com/stores/florida/miami/45301",
        "latitude": 25.6842959,
        "longitude": -80.4151783,
        "GMap": "https://maps.google.com/maps?cid=18210499629045052427",
        "Phone": "+13053877773",
        "Street": "13628 SW 88th Street",
        "City": "Miami",
        "State": "FL",
        "ZIP": 33186
    },
    {
        "name": "Country Walk Plaza",
        "AttWeb": "https://www.att.com/stores/florida/miami/103313",
        "latitude": 25.626666954418948,
        "longitude": -80.41674279057133,
        "GMap": "https://maps.google.com/maps?cid=10446989068449920516",
        "Phone": "+17864301360",
        "Street": "13781 SW 152nd Street",
        "City": "Miami",
        "State": "FL",
        "ZIP": 33177
    },
    {
        "name": "Tamiami Trail",
        "AttWeb": "https://www.att.com/stores/florida/miami/44090",
        "latitude": 25.759609435121416,
        "longitude": -80.41898731214621,
        "GMap": "https://maps.google.com/maps?cid=13146303848900621451",
        "Phone": "+13052263100",
        "Street": "13796 SW 8th Street",
        "City": "Miami",
        "State": "FL",
        "ZIP": 33184
    },
    {
        "name": "Key Largo",
        "AttWeb": "https://www.att.com/stores/florida/key-largo/44315",
        "latitude": 25.112519149482335,
        "longitude": -80.42161784986104,
        "GMap": "https://maps.google.com/maps?cid=7927444902308072026",
        "Phone": "+13054513222",
        "Street": "101431 Overseas Hwy",
        "City": "Key Largo",
        "State": "FL",
        "ZIP": 33037
    },
    {
        "name": "The Landing at Tradition",
        "AttWeb": "https://www.att.com/stores/florida/port-st.-lucie/78789",
        "latitude": 27.2710597,
        "longitude": -80.4273079,
        "GMap": "https://maps.google.com/maps?cid=17115208705405847667",
        "Phone": "+17723452880",
        "Street": "10636 SW Village Parkway",
        "City": "Port St. Lucie",
        "State": "FL",
        "ZIP": 34987
    },
    {
        "name": "Sw 56th",
        "AttWeb": "https://www.att.com/stores/florida/miami/92424",
        "latitude": 25.714420121709725,
        "longitude": -80.42975283694659,
        "GMap": "https://maps.google.com/maps?cid=16590097191301695488",
        "Phone": "+13052220454",
        "Street": "14649 SW 56 St",
        "City": "Miami",
        "State": "FL",
        "ZIP": 33175
    },
    {
        "name": "Homestead",
        "AttWeb": "https://www.att.com/stores/florida/homestead/75988",
        "latitude": 25.480451423325817,
        "longitude": -80.44089624456075,
        "GMap": "https://maps.google.com/maps?cid=12557294565061992655",
        "Phone": "+13052463441",
        "Street": "2555 NE 10th Ct. Homestead",
        "City": "Homestead",
        "State": "FL",
        "ZIP": 33030
    },
    {
        "name": "The Meadows",
        "AttWeb": "https://www.att.com/stores/florida/miami/45498",
        "latitude": 25.7273954,
        "longitude": -80.44145309999999,
        "GMap": "https://maps.google.com/maps?cid=17011373713758948004",
        "Phone": "+13055538997",
        "Street": "4238 SW 152nd Ave",
        "City": "Miami",
        "State": "FL",
        "ZIP": 33185
    },
    {
        "name": "Park Plaza",
        "AttWeb": "https://www.att.com/stores/florida/miami/45300",
        "latitude": 25.683694992839918,
        "longitude": -80.44410599945616,
        "GMap": "https://maps.google.com/maps?cid=17029952426226558807",
        "Phone": "+13053889555",
        "Street": "15420 SW 88th St",
        "City": "Miami",
        "State": "FL",
        "ZIP": 33196
    },
    {
        "name": "Vero Beach",
        "AttWeb": "https://www.att.com/stores/florida/vero-beach/209",
        "latitude": 27.63963802162157,
        "longitude": -80.45733198523521,
        "GMap": "https://maps.google.com/maps?cid=247484570234090713",
        "Phone": "+17725671375",
        "Street": "6310 A. 20th St",
        "City": "Vero Beach",
        "State": "FL",
        "ZIP": 32966
    },
    {
        "name": "Indian River Mall",
        "AttWeb": "https://www.att.com/stores/florida/vero-beach/103290",
        "latitude": 27.642367465994194,
        "longitude": -80.45838294978415,
        "GMap": "https://maps.google.com/?cid=1677735650692686470",
        "Phone": "+17727940663",
        "Street": "6200 20th Street",
        "City": "Vero Beach",
        "State": "FL",
        "ZIP": 32966
    },
    {
        "name": "Florida City",
        "AttWeb": "https://www.att.com/stores/florida/florida-city/76044",
        "latitude": 25.461632527638432,
        "longitude": -80.47467421935482,
        "GMap": "https://maps.google.com/maps?cid=12053742708864165301",
        "Phone": "+13052459495",
        "Street": "32951 S Dixie Hwy",
        "City": "Florida City",
        "State": "FL",
        "ZIP": 33034
    },
    {
        "name": "Sebastian",
        "AttWeb": "https://www.att.com/stores/florida/sebastian/103293",
        "latitude": 27.825604,
        "longitude": -80.476218,
        "GMap": "https://maps.google.com/?cid=2835204401708379642",
        "Phone": "+17723886170",
        "Street": "1671 Highway US 1",
        "City": "Sebastian",
        "State": "FL",
        "ZIP": 32958
    },
    {
        "name": "Homestead City Center",
        "AttWeb": "https://www.att.com/stores/florida/homestead/162018",
        "latitude": 25.469595149153633,
        "longitude": -80.47761178530216,
        "GMap": "https://maps.google.com/maps?cid=7115627233655095935",
        "Phone": "+17864043474",
        "Street": "20 S Krome Ave",
        "City": "Homestead",
        "State": "FL",
        "ZIP": 33030
    },
    {
        "name": "Tavernier",
        "AttWeb": "https://www.att.com/stores/florida/tavernier/40260",
        "latitude": 25.00326583,
        "longitude": -80.52435283,
        "GMap": "https://maps.google.com/maps?cid=681061118218596961",
        "Phone": "+13058527770",
        "Street": "91100 Overseas Hwy",
        "City": "Tavernier",
        "State": "FL",
        "ZIP": 33070
    },
    {
        "name": "Indian Harbour Beach",
        "AttWeb": "https://www.att.com/stores/florida/indian-harbour-beach/104852",
        "latitude": 28.1404611,
        "longitude": -80.5963373,
        "GMap": "https://maps.google.com/?cid=71415962370586400",
        "Phone": "+13217774334",
        "Street": "226 E Eau Gallie Blvd",
        "City": "Indian Harbour Beach",
        "State": "FL",
        "ZIP": 32937
    },
    {
        "name": "East New Haven",
        "AttWeb": "https://www.att.com/stores/florida/melbourne/117020",
        "latitude": 28.079081490318316,
        "longitude": -80.62113878222635,
        "GMap": "https://maps.google.com/maps?cid=8918500422254010854",
        "Phone": "+13212654589",
        "Street": "10 E New Haven Ave",
        "City": "Melbourne",
        "State": "FL",
        "ZIP": 32901
    },
    {
        "name": "West New Haven",
        "AttWeb": "https://www.att.com/stores/florida/melbourne/104854",
        "latitude": 28.081587,
        "longitude": -80.65093,
        "GMap": "https://maps.google.com/?cid=14675042444480399820",
        "Phone": "+13216846881",
        "Street": "1700 West New Haven",
        "City": "Melbourne",
        "State": "FL",
        "ZIP": 32904
    },
    {
        "name": "West Melbourne",
        "AttWeb": "https://www.att.com/stores/florida/west-melbourne/81892",
        "latitude": 28.036179,
        "longitude": -80.660653,
        "GMap": "https://maps.google.com/maps?cid=16757639893871155095",
        "Phone": "+13217252200",
        "Street": "4345 Norfolk Parkway",
        "City": "West Melbourne",
        "State": "FL",
        "ZIP": 32904
    },
    {
        "name": "Merritt Island",
        "AttWeb": "https://www.att.com/stores/florida/merritt-island/81210",
        "latitude": 28.35796267029485,
        "longitude": -80.68322992247636,
        "GMap": "https://maps.google.com/maps?cid=16020394913744965540",
        "Phone": "+13214552290",
        "Street": "800 E. Merritt Island Causeway",
        "City": "Merritt Island",
        "State": "FL",
        "ZIP": 32952
    },
    {
        "name": "Melbourne",
        "AttWeb": "https://www.att.com/stores/florida/melbourne/340",
        "latitude": 28.121142870351505,
        "longitude": -80.69915091319257,
        "GMap": "https://maps.google.com/maps?cid=13250873786664034402",
        "Phone": "+13212551200",
        "Street": "4450 W Eau Gallie Blvd",
        "City": "Melbourne",
        "State": "FL",
        "ZIP": 32934
    },
    {
        "name": "Merritt Island Courtenay Pkwy",
        "AttWeb": "https://www.att.com/stores/florida/merritt-island/104840",
        "latitude": 28.375482606800738,
        "longitude": -80.70085242390633,
        "GMap": "https://maps.google.com/?cid=13290465403497224165",
        "Phone": "+13214538806",
        "Street": "1070 N Courtenay Pkwy",
        "City": "Merritt Island",
        "State": "FL",
        "ZIP": 32953
    },
    {
        "name": "Town Center",
        "AttWeb": "https://www.att.com/stores/florida/melbourne/105109",
        "latitude": 28.242975750475367,
        "longitude": -80.72628582209018,
        "GMap": "https://maps.google.com/?cid=1926709812463646628",
        "Phone": "+13214330122",
        "Street": "2250 Town Center Ave",
        "City": "Melbourne",
        "State": "FL",
        "ZIP": 32940
    },
    {
        "name": "Cocoa",
        "AttWeb": "https://www.att.com/stores/florida/cocoa/104838",
        "latitude": 28.394706113756556,
        "longitude": -80.75562715530396,
        "GMap": "https://maps.google.com/?cid=17940161698196009800",
        "Phone": "+13212965566",
        "Street": "2701 Clearlake Rd",
        "City": "Cocoa",
        "State": "FL",
        "ZIP": 32922
    },
    {
        "name": "South Washington Avenue",
        "AttWeb": "https://www.att.com/stores/florida/titusville/123592",
        "latitude": 28.586534122718636,
        "longitude": -80.80244260308598,
        "GMap": "https://maps.google.com/?cid=15643480323850556826",
        "Phone": "+13213837444",
        "Street": "2450 S Washington Ave",
        "City": "Titusville",
        "State": "FL",
        "ZIP": 32780
    },
    {
        "name": "Titusville",
        "AttWeb": "https://www.att.com/stores/florida/titusville/75246",
        "latitude": 28.55196247811444,
        "longitude": -80.84365894102791,
        "GMap": "https://maps.google.com/maps?cid=8060891136046621674",
        "Phone": "+13212670767",
        "Street": "3065 Columbia Blvd",
        "City": "Titusville",
        "State": "FL",
        "ZIP": 32780
    },
    {
        "name": "Edgewater",
        "AttWeb": "https://www.att.com/stores/florida/edgewater/118409",
        "latitude": 28.971570192009043,
        "longitude": -80.89759419138431,
        "GMap": "https://maps.google.com/maps?cid=15462009506059592334",
        "Phone": "+13864097775",
        "Street": "110 W. Indian River Blvd",
        "City": "Edgewater",
        "State": "FL",
        "ZIP": 32141
    },
    {
        "name": "New Smyrna Beach",
        "AttWeb": "https://www.att.com/stores/florida/new-smyrna-beach/119760",
        "latitude": 29.0116059181717,
        "longitude": -80.94718650744653,
        "GMap": "https://maps.google.com/maps?cid=8748432014055539101",
        "Phone": "+13864235858",
        "Street": "1972 State Rd 44",
        "City": "New Smyrna Beach",
        "State": "FL",
        "ZIP": 32168
    },
    {
        "name": "Port Orange",
        "AttWeb": "https://www.att.com/stores/florida/port-orange/118457",
        "latitude": 29.128797361396018,
        "longitude": -81.00632585585123,
        "GMap": "https://maps.google.com/maps?cid=5400768691527516385",
        "Phone": "+13867563311",
        "Street": "3800 S Nova Road",
        "City": "Port Orange",
        "State": "FL",
        "ZIP": 32129
    },
    {
        "name": "Beville Road",
        "AttWeb": "https://www.att.com/stores/florida/daytona-beach/123205",
        "latitude": 29.172369223189822,
        "longitude": -81.03448384419767,
        "GMap": "https://maps.google.com/maps?cid=6985973951330256572",
        "Phone": "+13862675978",
        "Street": "1195 Beville Road",
        "City": "Daytona Beach",
        "State": "FL",
        "ZIP": 32119
    },
    {
        "name": "The Pavilion at Port Orange",
        "AttWeb": "https://www.att.com/stores/florida/port-orange/85482",
        "latitude": 29.110334120856873,
        "longitude": -81.03505599999994,
        "GMap": "https://maps.google.com/maps?cid=7833448829923936933",
        "Phone": "+13863041175",
        "Street": "5527 Williamson Blvd",
        "City": "Port Orange",
        "State": "FL",
        "ZIP": 32128
    },
    {
        "name": "West Granada Boulevard",
        "AttWeb": "https://www.att.com/stores/florida/ormond-beach/118455",
        "latitude": 29.28053258509153,
        "longitude": -81.06726564813022,
        "GMap": "https://maps.google.com/maps?cid=12707685121869523040",
        "Phone": "+13866712565",
        "Street": "374 W Granada Blvd",
        "City": "Ormond Beach",
        "State": "FL",
        "ZIP": 32174
    },
    {
        "name": "Volusia Pointe Shopping Center",
        "AttWeb": "https://www.att.com/stores/florida/daytona-beach/158362",
        "latitude": 29.20117167,
        "longitude": -81.07903,
        "GMap": "https://maps.google.com/maps?cid=15665916426595628962",
        "Phone": "+13862529000",
        "Street": "1804 W. International Speedway Blvd",
        "City": "Daytona Beach",
        "State": "FL",
        "ZIP": 32114
    },
    {
        "name": "Marathon",
        "AttWeb": "https://www.att.com/stores/florida/marathon/43597",
        "latitude": 24.7149017492965,
        "longitude": -81.07909716200083,
        "GMap": "https://maps.google.com/maps?cid=11996388776669035909",
        "Phone": "+13057435399",
        "Street": "5109 Overseas Hwy",
        "City": "Marathon",
        "State": "FL",
        "ZIP": 33050
    },
    {
        "name": "Williamson Xing",
        "AttWeb": "https://www.att.com/stores/florida/daytona-beach/213922",
        "latitude": 29.225372,
        "longitude": -81.088324,
        "GMap": "https://maps.google.com/maps?cid=3582931505576963637",
        "Phone": "+13217541742",
        "Street": "2071 Lpga Blvd",
        "City": "Daytona Beach",
        "State": "FL",
        "ZIP": 32117
    },
    {
        "name": "Ormond Beach",
        "AttWeb": "https://www.att.com/stores/florida/ormond-beach/119762",
        "latitude": 29.2632474,
        "longitude": -81.1056502,
        "GMap": "https://maps.google.com/maps?cid=15593475712871696902",
        "Phone": "+13866712522",
        "Street": "1298 W Granada Blvd",
        "City": "Ormond Beach",
        "State": "FL",
        "ZIP": 32174
    },
    {
        "name": "County Road",
        "AttWeb": "https://www.att.com/stores/florida/oviedo/176151",
        "latitude": 28.643648085163647,
        "longitude": -81.13076991395778,
        "GMap": "https://maps.google.com/maps?cid=17389130150757509993",
        "Phone": "+14075424948",
        "Street": "329 County Road 419",
        "City": "Oviedo",
        "State": "FL",
        "ZIP": 32766
    },
    {
        "name": "Avalon Park",
        "AttWeb": "https://www.att.com/stores/florida/orlando/176159",
        "latitude": 28.53774826533829,
        "longitude": -81.14998571553156,
        "GMap": "https://maps.google.com/maps?cid=129403981414775540",
        "Phone": "+13218045259",
        "Street": "457 S Avalon Park Blvd",
        "City": "Orlando",
        "State": "FL",
        "ZIP": 32828
    },
    {
        "name": "Deltona",
        "AttWeb": "https://www.att.com/stores/florida/deltona/118437",
        "latitude": 28.927015,
        "longitude": -81.187861,
        "GMap": "https://maps.google.com/maps?cid=3024142675879978641",
        "Phone": "+13869514342",
        "Street": "2783 Elkcam Blvd",
        "City": "Deltona",
        "State": "FL",
        "ZIP": 32738
    },
    {
        "name": "Waterford",
        "AttWeb": "https://www.att.com/stores/florida/orlando/1042",
        "latitude": 28.5547204,
        "longitude": -81.2044337,
        "GMap": "https://maps.google.com/maps?cid=10685525848442209270",
        "Phone": "+14077373738",
        "Street": "707 N Alafaya Trail",
        "City": "Orlando",
        "State": "FL",
        "ZIP": 32828
    },
    {
        "name": "Stonehill Plaza",
        "AttWeb": "https://www.att.com/stores/florida/oviedo/176150",
        "latitude": 28.65690623446894,
        "longitude": -81.20905372379225,
        "GMap": "https://maps.google.com/maps?cid=7400467173419015752",
        "Phone": "+14079015207",
        "Street": "45 W Mitchell Hammock Rd",
        "City": "Oviedo",
        "State": "FL",
        "ZIP": 32765
    },
    {
        "name": "Ucf Orlando",
        "AttWeb": "https://www.att.com/stores/florida/orlando/176148",
        "latitude": 28.5981378,
        "longitude": -81.2132495,
        "GMap": "https://maps.google.com/maps?cid=16666815215496252166",
        "Phone": "+14076013457",
        "Street": "11891 University Blvd",
        "City": "Orlando",
        "State": "FL",
        "ZIP": 32817
    },
    {
        "name": "Palm Coast Landing",
        "AttWeb": "https://www.att.com/stores/florida/palm-coast/95370",
        "latitude": 29.47622318985856,
        "longitude": -81.21750354766846,
        "GMap": "https://maps.google.com/maps?cid=4855760545804154675",
        "Phone": "+13865862921",
        "Street": "5180 Sr 100 East",
        "City": "Palm Coast",
        "State": "FL",
        "ZIP": 32164
    },
    {
        "name": "Palm Coast Pkwy",
        "AttWeb": "https://www.att.com/stores/florida/palm-coast/119758",
        "latitude": 29.5528492,
        "longitude": -81.2355561,
        "GMap": "https://maps.google.com/maps?cid=11905825539817517846",
        "Phone": "+13862465975",
        "Street": "1475 NW Palm Coast Pkwy",
        "City": "Palm Coast",
        "State": "FL",
        "ZIP": 32137
    },
    {
        "name": "Oviedo Park Crossing",
        "AttWeb": "https://www.att.com/stores/florida/oviedo/1045",
        "latitude": 28.6559366,
        "longitude": -81.2393404,
        "GMap": "https://maps.google.com/maps?cid=4788040203850339118",
        "Phone": "+14073593630",
        "Street": "8085 Red Bug Lake Rd",
        "City": "Oviedo",
        "State": "FL",
        "ZIP": 32765
    },
    {
        "name": "Lake Nona",
        "AttWeb": "https://www.att.com/stores/florida/orlando/122030",
        "latitude": 28.3913582,
        "longitude": -81.2456429,
        "GMap": "https://maps.google.com/maps?cid=11454283306176603204",
        "Phone": "+14078567979",
        "Street": "11954 Narcoossee Rd",
        "City": "Orlando",
        "State": "FL",
        "ZIP": 32832
    },
    {
        "name": "Winter Springs",
        "AttWeb": "https://www.att.com/stores/florida/winter-springs/209081",
        "latitude": 28.6979196,
        "longitude": -81.2630582,
        "GMap": "https://maps.google.com/maps?cid=7770279471049332616",
        "Phone": "+14079015285",
        "Street": "1184 E. State Road 434",
        "City": "Winter Springs",
        "State": "FL",
        "ZIP": 32708
    },
    {
        "name": "Red Willow Plaza",
        "AttWeb": "https://www.att.com/stores/florida/winter-springs/122023",
        "latitude": 28.6481148,
        "longitude": -81.2663471,
        "GMap": "https://maps.google.com/maps?cid=8012275782256036208",
        "Phone": "+14073660027",
        "Street": "5938 Red Bug Lake Rd",
        "City": "Winter Springs",
        "State": "FL",
        "ZIP": 32708
    },
    {
        "name": "Anastasia Plaza",
        "AttWeb": "https://www.att.com/stores/florida/st.-augustine/119756",
        "latitude": 29.8278553,
        "longitude": -81.2718008,
        "GMap": "https://maps.google.com/maps?cid=2100329883008863385",
        "Phone": "+19044611046",
        "Street": "1099 A1A Beach Blvd",
        "City": "St. Augustine",
        "State": "FL",
        "ZIP": 32080
    },
    {
        "name": "Lee Vista",
        "AttWeb": "https://www.att.com/stores/florida/orlando/95039",
        "latitude": 28.462692705341198,
        "longitude": -81.27297699451452,
        "GMap": "https://maps.google.com/maps?cid=11954791856433931665",
        "Phone": "+14076587749",
        "Street": "7051 Narcoossee Road",
        "City": "Orlando",
        "State": "FL",
        "ZIP": 32822
    },
    {
        "name": "Sanford",
        "AttWeb": "https://www.att.com/stores/florida/sanford/118431",
        "latitude": 28.7612236,
        "longitude": -81.2843744,
        "GMap": "https://maps.google.com/maps?cid=12469061336541111665",
        "Phone": "+13212214088",
        "Street": "3715 S Orlando Ave",
        "City": "Sanford",
        "State": "FL",
        "ZIP": 32773
    },
    {
        "name": "Winter Park",
        "AttWeb": "https://www.att.com/stores/florida/winter-park/145924",
        "latitude": 28.5969312,
        "longitude": -81.2880184,
        "GMap": "https://maps.google.com/maps?cid=8084407984837985272",
        "Phone": "+14077774659",
        "Street": "7460 University Blvd",
        "City": "Winter Park",
        "State": "FL",
        "ZIP": 32792
    },
    {
        "name": "Orange City",
        "AttWeb": "https://www.att.com/stores/florida/orange-city/2050",
        "latitude": 28.9128888,
        "longitude": -81.2956452,
        "GMap": "https://maps.google.com/maps?cid=6137159768049330498",
        "Phone": "+13867753131",
        "Street": "2620 Enterprise Rd",
        "City": "Orange City",
        "State": "FL",
        "ZIP": 32763
    },
    {
        "name": "South Woodland Boulevard",
        "AttWeb": "https://www.att.com/stores/florida/deland/118415",
        "latitude": 28.98572035397518,
        "longitude": -81.29885352683232,
        "GMap": "https://maps.google.com/maps?cid=7717102695602869775",
        "Phone": "+13867476916",
        "Street": "2421 S Woodland Blvd",
        "City": "Deland",
        "State": "FL",
        "ZIP": 32720
    },
    {
        "name": "Northgate Shopping Center",
        "AttWeb": "https://www.att.com/stores/florida/deland/119746",
        "latitude": 29.05571484217546,
        "longitude": -81.29897698760033,
        "GMap": "https://maps.google.com/maps?cid=1183374216629502039",
        "Phone": "+13867389063",
        "Street": "305 E International Speedway Blvd",
        "City": "Deland",
        "State": "FL",
        "ZIP": 32724
    },
    {
        "name": "Lake Nona",
        "AttWeb": "https://www.att.com/stores/florida/orlando/161287",
        "latitude": 28.3658332,
        "longitude": -81.31044109999999,
        "GMap": "https://maps.google.com/maps?cid=6758471631650704915",
        "Phone": "+14073802838",
        "Street": "14177 Lake Nona Blvd",
        "City": "Orlando",
        "State": "FL",
        "ZIP": 32824
    },
    {
        "name": "Lee Vista",
        "AttWeb": "https://www.att.com/stores/florida/orlando/176184",
        "latitude": 28.47222980884767,
        "longitude": -81.31081165596879,
        "GMap": "https://maps.google.com/maps?cid=12173867451488832679",
        "Phone": "+14076023078",
        "Street": "6324 S Semoran Blvd",
        "City": "Orlando",
        "State": "FL",
        "ZIP": 32822
    },
    {
        "name": "Lake Fredrica Center",
        "AttWeb": "https://www.att.com/stores/florida/orlando/117387",
        "latitude": 28.5034022,
        "longitude": -81.3126911,
        "GMap": "https://maps.google.com/maps?cid=303742138160387033",
        "Phone": "+14072490031",
        "Street": "4000 S Semoran Blvd",
        "City": "Orlando",
        "State": "FL",
        "ZIP": 32822
    },
    {
        "name": "Saint Cloud",
        "AttWeb": "https://www.att.com/stores/florida/saint-cloud/122028",
        "latitude": 28.2519372,
        "longitude": -81.3156533,
        "GMap": "https://maps.google.com/maps?cid=4884894444078433422",
        "Phone": "+14079575932",
        "Street": "4305 13th St",
        "City": "Saint Cloud",
        "State": "FL",
        "ZIP": 34769
    },
    {
        "name": "Casselberry",
        "AttWeb": "https://www.att.com/stores/florida/casselberry/177119",
        "latitude": 28.628516598874107,
        "longitude": -81.31902076113698,
        "GMap": "https://maps.google.com/maps?cid=861059362498431944",
        "Phone": "+14077904775",
        "Street": "1455 S Semoran Blvd",
        "City": "Casselberry",
        "State": "FL",
        "ZIP": 32707
    },
    {
        "name": "St. Augustine Sr 312",
        "AttWeb": "https://www.att.com/stores/florida/st.-augustine/1051",
        "latitude": 29.8684907,
        "longitude": -81.3194663,
        "GMap": "https://maps.google.com/maps?cid=7931937374766601342",
        "Phone": "+19048231550",
        "Street": "256 State Road 312",
        "City": "St. Augustine",
        "State": "FL",
        "ZIP": 32086
    },
    {
        "name": "Shoppes of Aloma",
        "AttWeb": "https://www.att.com/stores/florida/winter-park/177072",
        "latitude": 28.60069700000001,
        "longitude": -81.3217516588955,
        "GMap": "https://maps.google.com/maps?cid=3854071026001916432",
        "Phone": "+14079518383",
        "Street": "2246 Aloma Ave",
        "City": "Winter Park",
        "State": "FL",
        "ZIP": 32792
    },
    {
        "name": "C B L Drive",
        "AttWeb": "https://www.att.com/stores/florida/st.-augustine/119840",
        "latitude": 29.865809,
        "longitude": -81.329116,
        "GMap": "https://maps.google.com/maps?cid=16892963939129738648",
        "Phone": "+19049034636",
        "Street": "200 CBL Dr",
        "City": "St. Augustine",
        "State": "FL",
        "ZIP": 32086
    },
    {
        "name": "Colonial Drive",
        "AttWeb": "https://www.att.com/stores/florida/orlando/1041",
        "latitude": 28.554007,
        "longitude": -81.3317482,
        "GMap": "https://maps.google.com/maps?cid=1778012928719136881",
        "Phone": "+14078939000",
        "Street": "4313 E Colonial Dr",
        "City": "Orlando",
        "State": "FL",
        "ZIP": 32803
    },
    {
        "name": "Market Place at Seminole Towne Center",
        "AttWeb": "https://www.att.com/stores/florida/sanford/1552",
        "latitude": 28.799999619491864,
        "longitude": -81.33418967597066,
        "GMap": "https://maps.google.com/maps?cid=10587305939297035530",
        "Phone": "+14073026767",
        "Street": "1657 Wp Ball Blvd",
        "City": "Sanford",
        "State": "FL",
        "ZIP": 32771
    },
    {
        "name": "Semoran Boulevard",
        "AttWeb": "https://www.att.com/stores/florida/casselberry/122049",
        "latitude": 28.658904380701472,
        "longitude": -81.33695707478176,
        "GMap": "https://maps.google.com/maps?cid=18193070985308925890",
        "Phone": "+14078100718",
        "Street": "202 State Rd 436",
        "City": "Casselberry",
        "State": "FL",
        "ZIP": 32707
    },
    {
        "name": "Seminole Town Center",
        "AttWeb": "https://www.att.com/stores/florida/sanford/176149",
        "latitude": 28.8051477,
        "longitude": -81.337832,
        "GMap": "https://maps.google.com/maps?cid=15527388754498268544",
        "Phone": "+14079423062",
        "Street": "201 Towne Center Cir",
        "City": "Sanford",
        "State": "FL",
        "ZIP": 32771
    },
    {
        "name": "Coytown",
        "AttWeb": "https://www.att.com/stores/florida/orlando/118433",
        "latitude": 28.551471941493315,
        "longitude": -81.34985849261278,
        "GMap": "https://maps.google.com/maps?cid=12629982163889793544",
        "Phone": "+14072284251",
        "Street": "2608 E Colonial Drive",
        "City": "Orlando",
        "State": "FL",
        "ZIP": 32803
    },
    {
        "name": "Lake Mary",
        "AttWeb": "https://www.att.com/stores/florida/lake-mary/119752",
        "latitude": 28.7566171,
        "longitude": -81.3530607,
        "GMap": "https://maps.google.com/maps?cid=17700725720445781361",
        "Phone": "+14078040000",
        "Street": "4300 W Lake Mary Blvd",
        "City": "Lake Mary",
        "State": "FL",
        "ZIP": 32746
    },
    {
        "name": "Lake Mary",
        "AttWeb": "https://www.att.com/stores/florida/lake-mary/177085",
        "latitude": 28.788688,
        "longitude": -81.356744,
        "GMap": "https://maps.google.com/maps?cid=12384912256273440145",
        "Phone": "+14078782876",
        "Street": "1135 Townpark Avenue",
        "City": "Lake Mary",
        "State": "FL",
        "ZIP": 32746
    },
    {
        "name": "Maitland",
        "AttWeb": "https://www.att.com/stores/florida/maitland/176172",
        "latitude": 28.62894317714249,
        "longitude": -81.36324017498316,
        "GMap": "https://maps.google.com/maps?cid=8944103321193853638",
        "Phone": "+13219721380",
        "Street": "254 N Orlando Ave",
        "City": "Maitland",
        "State": "FL",
        "ZIP": 32751
    },
    {
        "name": "Saint Augustine",
        "AttWeb": "https://www.att.com/stores/florida/st.-augustine/116558",
        "latitude": 29.91474149709468,
        "longitude": -81.36333510814285,
        "GMap": "https://maps.google.com/?cid=15392103720883756220",
        "Phone": "+19042090236",
        "Street": "965 State Road 16",
        "City": "St. Augustine",
        "State": "FL",
        "ZIP": 32084
    },
    {
        "name": "Longwood",
        "AttWeb": "https://www.att.com/stores/florida/longwood/177077",
        "latitude": 28.69834915975835,
        "longitude": -81.36439859979782,
        "GMap": "https://maps.google.com/maps?cid=8003650773969260344",
        "Phone": "+14076366029",
        "Street": "1155 W Sr 434",
        "City": "Longwood",
        "State": "FL",
        "ZIP": 32750
    },
    {
        "name": "Winter Park",
        "AttWeb": "https://www.att.com/stores/florida/winter-park/91771",
        "latitude": 28.601656167146352,
        "longitude": -81.36477537454545,
        "GMap": "https://maps.google.com/maps?cid=14011577066453198467",
        "Phone": "+14076222382",
        "Street": "432 N Orlando Ave",
        "City": "Winter Park",
        "State": "FL",
        "ZIP": 32789
    },
    {
        "name": "Mills Park",
        "AttWeb": "https://www.att.com/stores/florida/orlando/119810",
        "latitude": 28.5648101,
        "longitude": -81.365741,
        "GMap": "https://maps.google.com/maps?cid=7449158493382936191",
        "Phone": "+14072861813",
        "Street": "1486 Mills Ave",
        "City": "Orlando",
        "State": "FL",
        "ZIP": 32803
    },
    {
        "name": "Wadeview Park",
        "AttWeb": "https://www.att.com/stores/florida/orlando/118443",
        "latitude": 28.5120238,
        "longitude": -81.3733223,
        "GMap": "https://maps.google.com/maps?cid=12511198532277289264",
        "Phone": "+14077048727",
        "Street": "312 East Michigan Street",
        "City": "Orlando",
        "State": "FL",
        "ZIP": 32806
    },
    {
        "name": "Altamonte Mall",
        "AttWeb": "https://www.att.com/stores/florida/altamonte-springs/104844",
        "latitude": 28.66661425445651,
        "longitude": -81.37729216477618,
        "GMap": "https://maps.google.com/?cid=10321732356493964358",
        "Phone": "+14078340085",
        "Street": "451 E Altamonte Dr",
        "City": "Altamonte Springs",
        "State": "FL",
        "ZIP": 32701
    },
    {
        "name": "Uptown Altamonte",
        "AttWeb": "https://www.att.com/stores/florida/altamonte-springs/78399",
        "latitude": 28.6626519,
        "longitude": -81.3833654,
        "GMap": "https://maps.google.com/maps?cid=9921855232782622612",
        "Phone": "+14078307622",
        "Street": "275 E Altamonte Drive",
        "City": "Altamonte Springs",
        "State": "FL",
        "ZIP": 32701
    },
    {
        "name": "Edgewater",
        "AttWeb": "https://www.att.com/stores/florida/orlando/180143",
        "latitude": 28.572323355131374,
        "longitude": -81.38923234966194,
        "GMap": "https://maps.google.com/maps?cid=11275509760059367697",
        "Phone": "+14076489331",
        "Street": "2305 Edgewater Dr",
        "City": "Orlando",
        "State": "FL",
        "ZIP": 32804
    },
    {
        "name": "Jax Beach - Jtb",
        "AttWeb": "https://www.att.com/stores/florida/jacksonville-beach/482",
        "latitude": 30.2569581,
        "longitude": -81.3894531,
        "GMap": "https://maps.google.com/maps?cid=6840225017730019625",
        "Phone": "+19042467277",
        "Street": "4194 3rd St S",
        "City": "Jacksonville Beach",
        "State": "FL",
        "ZIP": 32250
    },
    {
        "name": "Beach Boulevard",
        "AttWeb": "https://www.att.com/stores/florida/jacksonville-beach/104988",
        "latitude": 30.28781944638846,
        "longitude": -81.3922114036875,
        "GMap": "https://maps.google.com/?cid=1738512780033711657",
        "Phone": "+19042211234",
        "Street": "300 Beach Blvd",
        "City": "Jacksonville Beach",
        "State": "FL",
        "ZIP": 32250
    },
    {
        "name": "Adanson Plaza",
        "AttWeb": "https://www.att.com/stores/florida/orlando/176182",
        "latitude": 28.6045293,
        "longitude": -81.3962852,
        "GMap": "https://maps.google.com/maps?cid=1393672421622947993",
        "Phone": "+14077907124",
        "Street": "916 Lee Road",
        "City": "Orlando",
        "State": "FL",
        "ZIP": 32810
    },
    {
        "name": "Skyview",
        "AttWeb": "https://www.att.com/stores/florida/orlando/81462",
        "latitude": 28.4534854,
        "longitude": -81.3993725,
        "GMap": "https://maps.google.com/maps?cid=12341348661454866000",
        "Phone": "+14078880017",
        "Street": "7727 S. Orange Blossom Trail",
        "City": "Orlando",
        "State": "FL",
        "ZIP": 32809
    },
    {
        "name": "Neptune Beach",
        "AttWeb": "https://www.att.com/stores/florida/neptune-beach/104991",
        "latitude": 30.32283,
        "longitude": -81.4049423,
        "GMap": "https://maps.google.com/?cid=7423399132867843536",
        "Phone": "+19042469897",
        "Street": "630-6 Atlantic Blvd",
        "City": "Neptune Beach",
        "State": "FL",
        "ZIP": 32266
    },
    {
        "name": "Orange Blossom Trail",
        "AttWeb": "https://www.att.com/stores/florida/orlando/119822",
        "latitude": 28.38128807945376,
        "longitude": -81.40524400859829,
        "GMap": "https://maps.google.com/maps?cid=6368142492915011591",
        "Phone": "+14076132178",
        "Street": "12648 S Orange Blossom Trail",
        "City": "Orlando",
        "State": "FL",
        "ZIP": 32837
    },
    {
        "name": "Kissimmee",
        "AttWeb": "https://www.att.com/stores/florida/kissimmee/118403",
        "latitude": 28.341244294839786,
        "longitude": -81.4119110100944,
        "GMap": "https://maps.google.com/maps?cid=10451106217019146503",
        "Phone": "+14077052484",
        "Street": "1001 W Osceola Parkway",
        "City": "Kissimmee",
        "State": "FL",
        "ZIP": 34741
    },
    {
        "name": "North John Young Pkwy",
        "AttWeb": "https://www.att.com/stores/florida/kissimmee/1035",
        "latitude": 28.30389184573739,
        "longitude": -81.41647785902029,
        "GMap": "https://maps.google.com/maps?cid=9350402025966180577",
        "Phone": "+14079310300",
        "Street": "1332 N John Young Pkwy",
        "City": "Kissimmee",
        "State": "FL",
        "ZIP": 34741
    },
    {
        "name": "Altamonte North Jamestown Plaza",
        "AttWeb": "https://www.att.com/stores/florida/altamonte-springs/104845",
        "latitude": 28.68174449300007,
        "longitude": -81.41810170196192,
        "GMap": "https://maps.google.com/?cid=4238812042363226170",
        "Phone": "+14076820295",
        "Street": "931 North S.R.434",
        "City": "Altamonte Springs",
        "State": "FL",
        "ZIP": 32714
    },
    {
        "name": "Ponte Vedra",
        "AttWeb": "https://www.att.com/stores/florida/ponte-vedra/176146",
        "latitude": 30.109670726636597,
        "longitude": -81.41841602222905,
        "GMap": "https://maps.google.com/maps?cid=8494787695973294537",
        "Phone": "+19048342237",
        "Street": "152 Capital Green Drive",
        "City": "Ponte Vedra",
        "State": "FL",
        "ZIP": 32081
    },
    {
        "name": "Osceola Loop",
        "AttWeb": "https://www.att.com/stores/florida/kissimmee/80870",
        "latitude": 28.34741316601413,
        "longitude": -81.41896694898605,
        "GMap": "https://maps.google.com/maps?cid=14594361312015951868",
        "Phone": "+14078477683",
        "Street": "3297 Greenwald Way North",
        "City": "Kissimmee",
        "State": "FL",
        "ZIP": 34741
    },
    {
        "name": "Hunters Creek",
        "AttWeb": "https://www.att.com/stores/florida/orlando/177117",
        "latitude": 28.3638491,
        "longitude": -81.4262297,
        "GMap": "https://maps.google.com/maps?cid=14039677599135075566",
        "Phone": "+13212446644",
        "Street": "4193 Town Center Blvd",
        "City": "Orlando",
        "State": "FL",
        "ZIP": 32837
    },
    {
        "name": "Millenia",
        "AttWeb": "https://www.att.com/stores/florida/orlando/81409",
        "latitude": 28.48628056685045,
        "longitude": -81.42704643309116,
        "GMap": "https://maps.google.com/maps?cid=9887106342180542250",
        "Phone": "+14072642813",
        "Street": "4006 Conroy Road",
        "City": "Orlando",
        "State": "FL",
        "ZIP": 32839
    },
    {
        "name": "Poinciana",
        "AttWeb": "https://www.att.com/stores/florida/kissimmee/122614",
        "latitude": 28.1467788,
        "longitude": -81.4469005,
        "GMap": "https://maps.google.com/maps?cid=1183298129647471835",
        "Phone": "+13212503399",
        "Street": "924 Cypress Pkwy",
        "City": "Kissimmee",
        "State": "FL",
        "ZIP": 34759
    },
    {
        "name": "Fernandina Beach",
        "AttWeb": "https://www.att.com/stores/florida/fernandina-beach/119776",
        "latitude": 30.63889629409565,
        "longitude": -81.45487502217293,
        "GMap": "https://maps.google.com/maps?cid=3473107848319199959",
        "Phone": "+19042772900",
        "Street": "1454 Sadler Rd",
        "City": "Fernandina Beach",
        "State": "FL",
        "ZIP": 32034
    },
    {
        "name": "Pablo Creek",
        "AttWeb": "https://www.att.com/stores/florida/jacksonville/199103",
        "latitude": 30.286301,
        "longitude": -81.4579326,
        "GMap": "https://maps.google.com/maps?cid=7755703882861542523",
        "Phone": "+19045127661",
        "Street": "3267 Hodges Blvd",
        "City": "Jacksonville",
        "State": "FL",
        "ZIP": 32224
    },
    {
        "name": "Turkey Lake",
        "AttWeb": "https://www.att.com/stores/florida/orlando/2021",
        "latitude": 28.4928752,
        "longitude": -81.4607109,
        "GMap": "https://maps.google.com/maps?cid=8401969087516714811",
        "Phone": "+14072919335",
        "Street": "4736 S Kirkman Rd",
        "City": "Orlando",
        "State": "FL",
        "ZIP": 32811
    },
    {
        "name": "Metro West",
        "AttWeb": "https://www.att.com/stores/florida/orlando/176155",
        "latitude": 28.5272304,
        "longitude": -81.4709518,
        "GMap": "https://maps.google.com/maps?cid=11414844056285437264",
        "Phone": "+13218006193",
        "Street": "6421 Raleigh Street",
        "City": "Orlando",
        "State": "FL",
        "ZIP": 32835
    },
    {
        "name": "Sunrise City",
        "AttWeb": "https://www.att.com/stores/florida/kissimmee/176174",
        "latitude": 28.3457378,
        "longitude": -81.4851587,
        "GMap": "https://maps.google.com/maps?cid=12214362874156498609",
        "Phone": "+14075079528",
        "Street": "3227 Vineland Road",
        "City": "Kissimmee",
        "State": "FL",
        "ZIP": 34746
    },
    {
        "name": "The Fountains",
        "AttWeb": "https://www.att.com/stores/florida/orlando/199075",
        "latitude": 28.450769964602973,
        "longitude": -81.48550719022751,
        "GMap": "https://maps.google.com/maps?cid=17434383351463390307",
        "Phone": "+14076358164",
        "Street": "7543 West Sand Lake Rd",
        "City": "Orlando",
        "State": "FL",
        "ZIP": 32819
    },
    {
        "name": "Sebring",
        "AttWeb": "https://www.att.com/stores/florida/sebring/119748",
        "latitude": 27.4949823,
        "longitude": -81.4859451,
        "GMap": "https://maps.google.com/maps?cid=6232719399542015136",
        "Phone": "+18633823439",
        "Street": "1300 US Highway 27 N",
        "City": "Sebring",
        "State": "FL",
        "ZIP": 33870
    },
    {
        "name": "Golden Glades",
        "AttWeb": "https://www.att.com/stores/florida/jacksonville/122045",
        "latitude": 30.317602717416044,
        "longitude": -81.48842677474016,
        "GMap": "https://maps.google.com/maps?cid=11428868559446991400",
        "Phone": "+19043793750",
        "Street": "12220 Atlantic Blvd",
        "City": "Jacksonville",
        "State": "FL",
        "ZIP": 32225
    },
    {
        "name": "Tuscan Way",
        "AttWeb": "https://www.att.com/stores/florida/st.-augustine/119778",
        "latitude": 29.96096260307322,
        "longitude": -81.4904397726059,
        "GMap": "https://maps.google.com/maps?cid=3038411932927168509",
        "Phone": "+19049404786",
        "Street": "124 Tuscan Way",
        "City": "St. Augustine",
        "State": "FL",
        "ZIP": 32092
    },
    {
        "name": "Cobblestone Crossings",
        "AttWeb": "https://www.att.com/stores/florida/jacksonville/177080",
        "latitude": 30.3606414,
        "longitude": -81.5014499,
        "GMap": "https://maps.google.com/maps?cid=14538404981947321036",
        "Phone": "+19048137977",
        "Street": "2771 Monument Road",
        "City": "Jacksonville",
        "State": "FL",
        "ZIP": 32225
    },
    {
        "name": "Apopka",
        "AttWeb": "https://www.att.com/stores/florida/apopka/157508",
        "latitude": 28.7078685,
        "longitude": -81.5097351,
        "GMap": "https://maps.google.com/?cid=9241604304188987419",
        "Phone": "+14072700088",
        "Street": "1624 Rock Springs Road",
        "City": "Apopka",
        "State": "FL",
        "ZIP": 32712
    },
    {
        "name": "Windermere",
        "AttWeb": "https://www.att.com/stores/florida/windermere/119828",
        "latitude": 28.4922038,
        "longitude": -81.5102296,
        "GMap": "https://maps.google.com/maps?cid=17660575783767417553",
        "Phone": "+14072175941",
        "Street": "4757 The Grove Dr",
        "City": "Windermere",
        "State": "FL",
        "ZIP": 34786
    },
    {
        "name": "Reedy Branch Commons",
        "AttWeb": "https://www.att.com/stores/florida/jacksonville/177076",
        "latitude": 30.213936,
        "longitude": -81.517985,
        "GMap": "https://maps.google.com/maps?cid=17872178887254321649",
        "Phone": "+19044230737",
        "Street": "10920 Baymeadows Road",
        "City": "Jacksonville",
        "State": "FL",
        "ZIP": 32256
    },
    {
        "name": "Street Johns",
        "AttWeb": "https://www.att.com/stores/florida/saint-johns/161290",
        "latitude": 30.0925761,
        "longitude": -81.5221821,
        "GMap": "https://maps.google.com/maps?cid=5766296676678199707",
        "Phone": "+13523532204",
        "Street": "935 Durbin Pavilion Dr",
        "City": "Saint Johns",
        "State": "FL",
        "ZIP": 32259
    },
    {
        "name": "Saint Johns Town Center",
        "AttWeb": "https://www.att.com/stores/florida/jacksonville/76924",
        "latitude": 30.2587868,
        "longitude": -81.5250457,
        "GMap": "https://maps.google.com/maps?cid=14917630048560004038",
        "Phone": "+19046469117",
        "Street": "4663 River City Drive",
        "City": "Jacksonville",
        "State": "FL",
        "ZIP": 32246
    },
    {
        "name": "Ocoee",
        "AttWeb": "https://www.att.com/stores/florida/ocoee/75736",
        "latitude": 28.552539647839875,
        "longitude": -81.52748602488612,
        "GMap": "https://maps.google.com/maps?cid=18134965046441931868",
        "Phone": "+14072994595",
        "Street": "10165 W Colonial Drive",
        "City": "Ocoee",
        "State": "FL",
        "ZIP": 34761
    },
    {
        "name": "Celebration",
        "AttWeb": "https://www.att.com/stores/florida/kissimmee/122032",
        "latitude": 28.333783332483755,
        "longitude": -81.5280269162485,
        "GMap": "https://maps.google.com/maps?cid=11483265103018243558",
        "Phone": "+14073962888",
        "Street": "6081 W Irlo Bronson Memorial Hwy",
        "City": "Kissimmee",
        "State": "FL",
        "ZIP": 34747
    },
    {
        "name": "Disney",
        "AttWeb": "https://www.att.com/stores/florida/orlando/107044",
        "latitude": 28.39686122290912,
        "longitude": -81.52905918459813,
        "GMap": "https://maps.google.com/maps?cid=1342507083413320657",
        "Phone": "+14075608336",
        "Street": "3396 E Vista Blvd",
        "City": "Orlando",
        "State": "FL",
        "ZIP": 32836
    },
    {
        "name": "Yulee",
        "AttWeb": "https://www.att.com/stores/florida/yulee/118694",
        "latitude": 30.6252422,
        "longitude": -81.5462036,
        "GMap": "https://maps.google.com/?cid=739396508654520891",
        "Phone": "+19042744003",
        "Street": "463852 State Road 200",
        "City": "Yulee",
        "State": "FL",
        "ZIP": 32097
    },
    {
        "name": "Jacksonville",
        "AttWeb": "https://www.att.com/stores/florida/jacksonville/176181",
        "latitude": 30.331252369274953,
        "longitude": -81.54766899831378,
        "GMap": "https://maps.google.com/maps?cid=7523754023815332100",
        "Phone": "+19046831151",
        "Street": "9585 N Regency Square Blvd",
        "City": "Jacksonville",
        "State": "FL",
        "ZIP": 32225
    },
    {
        "name": "Old Street Augustine",
        "AttWeb": "https://www.att.com/stores/florida/jacksonville/119774",
        "latitude": 30.1405564,
        "longitude": -81.5491233,
        "GMap": "https://maps.google.com/maps?cid=15541169716762295989",
        "Phone": "+19048806971",
        "Street": "13820 Old St Augustine Rd",
        "City": "Jacksonville",
        "State": "FL",
        "ZIP": 32258
    },
    {
        "name": "Southside Boulevard",
        "AttWeb": "https://www.att.com/stores/florida/jacksonville/91776",
        "latitude": 30.194816460564738,
        "longitude": -81.55082770072568,
        "GMap": "https://maps.google.com/maps?cid=6644197007953983041",
        "Phone": "+19045192399",
        "Street": "9039 Southside Blvd",
        "City": "Jacksonville",
        "State": "FL",
        "ZIP": 32256
    },
    {
        "name": "Regency Park",
        "AttWeb": "https://www.att.com/stores/florida/jacksonville/95169",
        "latitude": 30.31996053102698,
        "longitude": -81.551908015182,
        "GMap": "https://maps.google.com/maps?cid=7830281849758206988",
        "Phone": "+19047251134",
        "Street": "9498 Atlantic Blvd",
        "City": "Jacksonville",
        "State": "FL",
        "ZIP": 32225
    },
    {
        "name": "Southside Blvd",
        "AttWeb": "https://www.att.com/stores/florida/jacksonville/123594",
        "latitude": 30.264103400302872,
        "longitude": -81.55849233250615,
        "GMap": "https://maps.google.com/maps?cid=5355355960679318100",
        "Phone": "+19044799556",
        "Street": "4490 Southside Blvd",
        "City": "Jacksonville",
        "State": "FL",
        "ZIP": 32216
    },
    {
        "name": "Davenport",
        "AttWeb": "https://www.att.com/stores/florida/davenport/176142",
        "latitude": 28.2398471,
        "longitude": -81.5587692,
        "GMap": "https://maps.google.com/maps?cid=3385254221865825263",
        "Phone": "+18633531843",
        "Street": "6083 US Hwy 17-92 N",
        "City": "Davenport",
        "State": "FL",
        "ZIP": 33896
    },
    {
        "name": "Westside Village",
        "AttWeb": "https://www.att.com/stores/florida/windermere/122927",
        "latitude": 28.4502891,
        "longitude": -81.5622357,
        "GMap": "https://maps.google.com/maps?cid=6037910292285850085",
        "Phone": "+14072193298",
        "Street": "6527 Old Brick Rd",
        "City": "Windermere",
        "State": "FL",
        "ZIP": 34786
    },
    {
        "name": "Winter Garden",
        "AttWeb": "https://www.att.com/stores/florida/winter-garden/77390",
        "latitude": 28.5241101,
        "longitude": -81.5853443,
        "GMap": "https://maps.google.com/maps?cid=4512122202510370549",
        "Phone": "+14076565897",
        "Street": "3107 Daniels Rd",
        "City": "Winter Garden",
        "State": "FL",
        "ZIP": 34787
    },
    {
        "name": "Kissimmee",
        "AttWeb": "https://www.att.com/stores/florida/kissimmee/161291",
        "latitude": 28.347688772038975,
        "longitude": -81.61099861586229,
        "GMap": "https://maps.google.com/maps?cid=12324188825931194205",
        "Phone": "+14074874524",
        "Street": "8085 W Irlo Bronson Memorial Hwy",
        "City": "Kissimmee",
        "State": "FL",
        "ZIP": 34747
    },
    {
        "name": "Lake Wales",
        "AttWeb": "https://www.att.com/stores/florida/lake-wales/104860",
        "latitude": 27.9544919,
        "longitude": -81.6151276,
        "GMap": "https://maps.google.com/?cid=3787916417313057280",
        "Phone": "+18636793904",
        "Street": "910 Eagle Ridge Dr",
        "City": "Lake Wales",
        "State": "FL",
        "ZIP": 33859
    },
    {
        "name": "AT&T Store Winter Garden 1620 Avalon Road",
        "AttWeb": "https://www.att.com/stores/florida/winter-garden/211287",
        "latitude": 28.51734968895039,
        "longitude": -81.62091371842001,
        "GMap": "https://maps.google.com/maps?cid=8851798778835906377",
        "Phone": "+14076141480",
        "Street": "1620 Avalon Road",
        "City": "Winter Garden",
        "State": "FL",
        "ZIP": 34787
    },
    {
        "name": "Julington Creek",
        "AttWeb": "https://www.att.com/stores/florida/saint-johns/116557",
        "latitude": 30.1201716,
        "longitude": -81.6266036,
        "GMap": "https://maps.google.com/?cid=16626557717407835773",
        "Phone": "+19044845019",
        "Street": "450 State Road 13 North",
        "City": "Saint Johns",
        "State": "FL",
        "ZIP": 32259
    },
    {
        "name": "Jax Mandarin",
        "AttWeb": "https://www.att.com/stores/florida/jacksonville/80459",
        "latitude": 30.1734708,
        "longitude": -81.6278503,
        "GMap": "https://maps.google.com/maps?cid=13145733107192847775",
        "Phone": "+19042608948",
        "Street": "11113-102 San Jose Blvd",
        "City": "Jacksonville",
        "State": "FL",
        "ZIP": 32223
    },
    {
        "name": "Hamlin Groves",
        "AttWeb": "https://www.att.com/stores/florida/winter-garden/161292",
        "latitude": 28.4740418,
        "longitude": -81.6278684,
        "GMap": "https://maps.google.com/maps?cid=12765025277640891044",
        "Phone": "+14079015188",
        "Street": "16412 New Independence Pkw",
        "City": "Winter Garden",
        "State": "FL",
        "ZIP": 34787
    },
    {
        "name": "River City",
        "AttWeb": "https://www.att.com/stores/florida/jacksonville/78487",
        "latitude": 30.4799042,
        "longitude": -81.6368504,
        "GMap": "https://maps.google.com/maps?cid=12210142143624803438",
        "Phone": "+19047577566",
        "Street": "725 Nautica Dr",
        "City": "Jacksonville",
        "State": "FL",
        "ZIP": 32218
    },
    {
        "name": "Haines City",
        "AttWeb": "https://www.att.com/stores/florida/haines-city/117377",
        "latitude": 28.10611876743912,
        "longitude": -81.63958668708796,
        "GMap": "https://maps.google.com/maps?cid=6092181431624511579",
        "Phone": "+18634213078",
        "Street": "641 Us Hwy 17-92 W",
        "City": "Haines City",
        "State": "FL",
        "ZIP": 33844
    },
    {
        "name": "Davenport",
        "AttWeb": "https://www.att.com/stores/florida/davenport/116550",
        "latitude": 28.2204403857444,
        "longitude": -81.64189051924063,
        "GMap": "https://maps.google.com/?cid=7159138566098296996",
        "Phone": "+18632165590",
        "Street": "2300 Deer Creek Commerce Ln",
        "City": "Davenport",
        "State": "FL",
        "ZIP": 33837
    },
    {
        "name": "Lakewood",
        "AttWeb": "https://www.att.com/stores/florida/jacksonville/116552",
        "latitude": 30.2614414,
        "longitude": -81.6449089,
        "GMap": "https://maps.google.com/?cid=6329031227196908973",
        "Phone": "+19042650131",
        "Street": "5635-1 San Jose Blvd",
        "City": "Jacksonville",
        "State": "FL",
        "ZIP": 32217
    },
    {
        "name": "Mount Dora",
        "AttWeb": "https://www.att.com/stores/florida/mount-dora/199101",
        "latitude": 28.821961617267252,
        "longitude": -81.66741997003561,
        "GMap": "https://maps.google.com/maps?cid=14587736438607762298",
        "Phone": "+13527200376",
        "Street": "17435 US Highway 441",
        "City": "Mount Dora",
        "State": "FL",
        "ZIP": 32757
    },
    {
        "name": "Clermont",
        "AttWeb": "https://www.att.com/stores/florida/clermont/122029",
        "latitude": 28.3527074,
        "longitude": -81.675291,
        "GMap": "https://maps.google.com/maps?cid=14850319420642264055",
        "Phone": "+13525362038",
        "Street": "436 US Hwy 27",
        "City": "Clermont",
        "State": "FL",
        "ZIP": 34714
    },
    {
        "name": "Palatka",
        "AttWeb": "https://www.att.com/stores/florida/palatka/199126",
        "latitude": 29.6376662,
        "longitude": -81.6790316,
        "GMap": "https://maps.google.com/maps?cid=1642482327432641144",
        "Phone": "+13868668313",
        "Street": "850 S. Moody Rd",
        "City": "Palatka",
        "State": "FL",
        "ZIP": 32177
    },
    {
        "name": "Oak Street",
        "AttWeb": "https://www.att.com/stores/florida/jacksonville/104989",
        "latitude": 30.312144101770475,
        "longitude": -81.68137772883608,
        "GMap": "https://maps.google.com/?cid=5872350781822890537",
        "Phone": "+19047964873",
        "Street": "1620 Oak Street",
        "City": "Jacksonville",
        "State": "FL",
        "ZIP": 32204
    },
    {
        "name": "Westport",
        "AttWeb": "https://www.att.com/stores/florida/naples/80424",
        "latitude": 26.151870488529756,
        "longitude": -81.6874719520543,
        "GMap": "https://maps.google.com/maps?cid=11764739893438075842",
        "Phone": "+12394555182",
        "Street": "9985 Business Circle",
        "City": "Naples",
        "State": "FL",
        "ZIP": 34112
    },
    {
        "name": "South Naples",
        "AttWeb": "https://www.att.com/stores/florida/naples/122051",
        "latitude": 26.08966551797089,
        "longitude": -81.68793350458145,
        "GMap": "https://maps.google.com/maps?cid=15563852800157717599",
        "Phone": "+12393013844",
        "Street": "7729 Collier Blvd",
        "City": "Naples",
        "State": "FL",
        "ZIP": 34114
    },
    {
        "name": "Mission Hills Drive",
        "AttWeb": "https://www.att.com/stores/florida/naples/122037",
        "latitude": 26.2468987,
        "longitude": -81.6902066,
        "GMap": "https://maps.google.com/maps?cid=3790573463608535096",
        "Phone": "+12392617775",
        "Street": "7550 Mission Hills Dr",
        "City": "Naples",
        "State": "FL",
        "ZIP": 34119
    },
    {
        "name": "Park Avenue",
        "AttWeb": "https://www.att.com/stores/florida/orange-park/123078",
        "latitude": 30.166287864044374,
        "longitude": -81.70068055297412,
        "GMap": "https://maps.google.com/maps?cid=7888113179487979793",
        "Phone": "+19045304631",
        "Street": "1963 Park Avenue",
        "City": "Orange Park",
        "State": "FL",
        "ZIP": 32073
    },
    {
        "name": "Hibernia Pavillion",
        "AttWeb": "https://www.att.com/stores/florida/fleming-island/177075",
        "latitude": 30.070329719259835,
        "longitude": -81.70648919437019,
        "GMap": "https://maps.google.com/maps?cid=1376638398261884960",
        "Phone": "+19045319561",
        "Street": "865 Hibernia Road",
        "City": "Fleming Island",
        "State": "FL",
        "ZIP": 32003
    },
    {
        "name": "Fleming Island",
        "AttWeb": "https://www.att.com/stores/florida/fleming-island/119764",
        "latitude": 30.104034,
        "longitude": -81.710462,
        "GMap": "https://maps.google.com/maps?cid=11956791991114945061",
        "Phone": "+19042137877",
        "Street": "5000 US State Hwy 17",
        "City": "Fleming Island",
        "State": "FL",
        "ZIP": 32003
    },
    {
        "name": "Roosevelt Square",
        "AttWeb": "https://www.att.com/stores/florida/jacksonville/122024",
        "latitude": 30.280667,
        "longitude": -81.7179682,
        "GMap": "https://maps.google.com/maps?cid=14336137893158306761",
        "Phone": "+19049304500",
        "Street": "4495 Roosevelt Blvd",
        "City": "Jacksonville",
        "State": "FL",
        "ZIP": 32210
    },
    {
        "name": "Logan Landings",
        "AttWeb": "https://www.att.com/stores/florida/naples/176188",
        "latitude": 26.271469179516462,
        "longitude": -81.7187572774933,
        "GMap": "https://maps.google.com/maps?cid=10475047797567927979",
        "Phone": "+12396316167",
        "Street": "2236 Logan Blvd N",
        "City": "Naples",
        "State": "FL",
        "ZIP": 34119
    },
    {
        "name": "AT&T Store Winter Haven 575 Cypress Gardens Blvd",
        "AttWeb": "https://www.att.com/stores/florida/winter-haven/205249",
        "latitude": 28.004510635113878,
        "longitude": -81.71988027636992,
        "GMap": "https://maps.google.com/maps?cid=3658897047362854607",
        "Phone": "+18632682413",
        "Street": "575 Cypress Gardens Blvd",
        "City": "Winter Haven",
        "State": "FL",
        "ZIP": 33880
    },
    {
        "name": "Marco Island",
        "AttWeb": "https://www.att.com/stores/florida/marco-island/122026",
        "latitude": 25.9535823,
        "longitude": -81.7257708,
        "GMap": "https://maps.google.com/maps?cid=11930722889661883165",
        "Phone": "+12393897300",
        "Street": "949 N Collier Blvd",
        "City": "Marco Island",
        "State": "FL",
        "ZIP": 34145
    },
    {
        "name": "Clermont",
        "AttWeb": "https://www.att.com/stores/florida/clermont/80520",
        "latitude": 28.545749,
        "longitude": -81.728459,
        "GMap": "https://maps.google.com/maps?cid=17641926100672749867",
        "Phone": "+13522418676",
        "Street": "1500 Oakley Seaver Drive",
        "City": "Clermont",
        "State": "FL",
        "ZIP": 34711
    },
    {
        "name": "Winter Haven",
        "AttWeb": "https://www.att.com/stores/florida/winter-haven/247",
        "latitude": 28.0096278,
        "longitude": -81.731504,
        "GMap": "https://maps.google.com/maps?cid=16966057619911476269",
        "Phone": "+18632922185",
        "Street": "1107 3rd St SW",
        "City": "Winter Haven",
        "State": "FL",
        "ZIP": 33880
    },
    {
        "name": "Tavares",
        "AttWeb": "https://www.att.com/stores/florida/tavares/122025",
        "latitude": 28.810263,
        "longitude": -81.7340998,
        "GMap": "https://maps.google.com/maps?cid=17074199071221690204",
        "Phone": "+13523438541",
        "Street": "600 W Burleigh Blvd",
        "City": "Tavares",
        "State": "FL",
        "ZIP": 32778
    },
    {
        "name": "Orange Park Mall",
        "AttWeb": "https://www.att.com/stores/florida/orange-park/104990",
        "latitude": 30.184859154167267,
        "longitude": -81.73461798761366,
        "GMap": "https://maps.google.com/?cid=17542892824160070697",
        "Phone": "+19042690381",
        "Street": "1910 Wells Road",
        "City": "Orange Park",
        "State": "FL",
        "ZIP": 32073
    },
    {
        "name": "103rd Street",
        "AttWeb": "https://www.att.com/stores/florida/jacksonville/117382",
        "latitude": 30.248782987670413,
        "longitude": -81.74257614099139,
        "GMap": "https://maps.google.com/maps?cid=18403273402810782578",
        "Phone": "+19049034487",
        "Street": "6147 103rd St",
        "City": "Jacksonville",
        "State": "FL",
        "ZIP": 32210
    },
    {
        "name": "Argyle Forest",
        "AttWeb": "https://www.att.com/stores/florida/jacksonville/199074",
        "latitude": 30.1936238,
        "longitude": -81.7436261,
        "GMap": "https://maps.google.com/maps?cid=17725230427607692952",
        "Phone": "+19045127691",
        "Street": "6001-31 Argyle Forest Blvd",
        "City": "Jacksonville",
        "State": "FL",
        "ZIP": 32244
    },
    {
        "name": "Bonita Springs",
        "AttWeb": "https://www.att.com/stores/florida/bonita-springs/177087",
        "latitude": 26.330711,
        "longitude": -81.754333,
        "GMap": "https://maps.google.com/maps?cid=7941866176357120237",
        "Phone": "+12396767591",
        "Street": "12031 Bonita Beach Rd",
        "City": "Bonita Springs",
        "State": "FL",
        "ZIP": 34135
    },
    {
        "name": "Orange Park",
        "AttWeb": "https://www.att.com/stores/florida/orange-park/117385",
        "latitude": 30.148571,
        "longitude": -81.7553479,
        "GMap": "https://maps.google.com/maps?cid=13300759112284755534",
        "Phone": "+19046447145",
        "Street": "661 Blanding Blvd",
        "City": "Orange Park",
        "State": "FL",
        "ZIP": 32073
    },
    {
        "name": "Collins Plaza",
        "AttWeb": "https://www.att.com/stores/florida/jacksonville/157410",
        "latitude": 30.2047004,
        "longitude": -81.7591857,
        "GMap": "https://maps.google.com/maps?cid=15532140066630701486",
        "Phone": "+19042366242",
        "Street": "7051 Collins Rd",
        "City": "Jacksonville",
        "State": "FL",
        "ZIP": 32244
    },
    {
        "name": "Normandy Boulevard",
        "AttWeb": "https://www.att.com/stores/florida/jacksonville/117379",
        "latitude": 30.30118328704032,
        "longitude": -81.76516480745249,
        "GMap": "https://maps.google.com/maps?cid=12447961918202202460",
        "Phone": "+19049034623",
        "Street": "7077 Normandy Blvd",
        "City": "Jacksonville",
        "State": "FL",
        "ZIP": 32205
    },
    {
        "name": "Key West",
        "AttWeb": "https://www.att.com/stores/florida/key-west/177099",
        "latitude": 24.566575875894422,
        "longitude": -81.76911270997675,
        "GMap": "https://maps.google.com/maps?cid=17753055327360657701",
        "Phone": "+13053639454",
        "Street": "1113 Key Plaza",
        "City": "Key West",
        "State": "FL",
        "ZIP": 33040
    },
    {
        "name": "Olympia Park",
        "AttWeb": "https://www.att.com/stores/florida/naples/122036",
        "latitude": 26.2426732,
        "longitude": -81.7697235,
        "GMap": "https://maps.google.com/maps?cid=6602930806571419295",
        "Phone": "+12395930800",
        "Street": "2400 Vanderbilt Beach Rd",
        "City": "Naples",
        "State": "FL",
        "ZIP": 34109
    },
    {
        "name": "Colonial Boulevard",
        "AttWeb": "https://www.att.com/stores/florida/fort-myers/161780",
        "latitude": 26.615898438223606,
        "longitude": -81.77195297420502,
        "GMap": "https://maps.google.com/maps?cid=9917762462715350277",
        "Phone": "+12395335277",
        "Street": "10993 Colonial Blvd",
        "City": "Fort Myers",
        "State": "FL",
        "ZIP": 33913
    },
    {
        "name": "Leesburg",
        "AttWeb": "https://www.att.com/stores/florida/leesburg/176196",
        "latitude": 28.82165,
        "longitude": -81.78388,
        "GMap": "https://maps.google.com/maps?cid=11762818530312382532",
        "Phone": "+13527023452",
        "Street": "10430 US Highway 441",
        "City": "Leesburg",
        "State": "FL",
        "ZIP": 34788
    },
    {
        "name": "Gulf Coast Town Center",
        "AttWeb": "https://www.att.com/stores/florida/fort-myers/68481",
        "latitude": 26.48688233053911,
        "longitude": -81.78554415143344,
        "GMap": "https://maps.google.com/maps?cid=7724437136666648245",
        "Phone": "+12394810548",
        "Street": "10089 Gulf Center Drive",
        "City": "Fort Myers",
        "State": "FL",
        "ZIP": 33913
    },
    {
        "name": "Naples Plaza",
        "AttWeb": "https://www.att.com/stores/florida/naples/524",
        "latitude": 26.1718659,
        "longitude": -81.8008256,
        "GMap": "https://maps.google.com/maps?cid=3634414321566194449",
        "Phone": "+12396594488",
        "Street": "2083 9th St N",
        "City": "Naples",
        "State": "FL",
        "ZIP": 34102
    },
    {
        "name": "Gateway Shoppes",
        "AttWeb": "https://www.att.com/stores/florida/naples/81637",
        "latitude": 26.295152724529117,
        "longitude": -81.80273262328865,
        "GMap": "https://maps.google.com/maps?cid=13196646613863678375",
        "Phone": "+12395142776",
        "Street": "13555 Tamiami Trail North",
        "City": "Naples",
        "State": "FL",
        "ZIP": 34110
    },
    {
        "name": "Daniels Pkwy",
        "AttWeb": "https://www.att.com/stores/florida/fort-myers/145857",
        "latitude": 26.547963352473996,
        "longitude": -81.80691971946749,
        "GMap": "https://maps.google.com/maps?cid=11589522512236617952",
        "Phone": "+12392153223",
        "Street": "8951 Daniels Parkway",
        "City": "Fort Myers",
        "State": "FL",
        "ZIP": 33912
    },
    {
        "name": "Estero",
        "AttWeb": "https://www.att.com/stores/florida/estero/199105",
        "latitude": 26.404435316196082,
        "longitude": -81.80881651860477,
        "GMap": "https://maps.google.com/maps?cid=6708762881015203354",
        "Phone": "+12396030311",
        "Street": "8076 Mediterranean Drive",
        "City": "Estero",
        "State": "FL",
        "ZIP": 33928
    },
    {
        "name": "Colonial Square",
        "AttWeb": "https://www.att.com/stores/florida/fort-myers/81682",
        "latitude": 26.607337626101277,
        "longitude": -81.8104245128294,
        "GMap": "https://maps.google.com/maps?cid=11229872705363857032",
        "Phone": "+12399362272",
        "Street": "8041 Dani Drive",
        "City": "Fort Myers",
        "State": "FL",
        "ZIP": 33966
    },
    {
        "name": "Oakleaf",
        "AttWeb": "https://www.att.com/stores/florida/jacksonville/76391",
        "latitude": 30.197644726065093,
        "longitude": -81.82347290285827,
        "GMap": "https://maps.google.com/maps?cid=14210752611021583748",
        "Phone": "+19043172778",
        "Street": "9508 Crosshill Blvd",
        "City": "Jacksonville",
        "State": "FL",
        "ZIP": 32222
    },
    {
        "name": "Middleburg",
        "AttWeb": "https://www.att.com/stores/florida/middleburg/199104",
        "latitude": 30.106630612430404,
        "longitude": -81.82883262634283,
        "GMap": "https://maps.google.com/maps?cid=15208379042966718098",
        "Phone": "+19045064302",
        "Street": "1786 Blanding Blvd",
        "City": "Middleburg",
        "State": "FL",
        "ZIP": 32068
    },
    {
        "name": "Bartow",
        "AttWeb": "https://www.att.com/stores/florida/bartow/116917",
        "latitude": 27.9057674,
        "longitude": -81.8428649,
        "GMap": "https://maps.google.com/?cid=16980948399310797330",
        "Phone": "+18638044031",
        "Street": "1030 North Broadway",
        "City": "Bartow",
        "State": "FL",
        "ZIP": 33830
    },
    {
        "name": "Jamaica Bay",
        "AttWeb": "https://www.att.com/stores/florida/fort-myers/201677",
        "latitude": 26.521368,
        "longitude": -81.8681182,
        "GMap": "https://maps.google.com/maps?cid=3697960685744748698",
        "Phone": "+12397904439",
        "Street": "15245 S. Tamiami Trail",
        "City": "Fort Myers",
        "State": "FL",
        "ZIP": 33908
    },
    {
        "name": "Ft. Meyers",
        "AttWeb": "https://www.att.com/stores/florida/fort-myers/157413",
        "latitude": 26.588986625214012,
        "longitude": -81.87262448554594,
        "GMap": "https://maps.google.com/maps?cid=2017773384420182759",
        "Phone": "+12392042350",
        "Street": "4928 S Cleveland Ave",
        "City": "Fort Myers",
        "State": "FL",
        "ZIP": 33907
    },
    {
        "name": "Leesburg",
        "AttWeb": "https://www.att.com/stores/florida/leesburg/122048",
        "latitude": 28.817520523448948,
        "longitude": -81.88721202319363,
        "GMap": "https://maps.google.com/maps?cid=11568058867378742133",
        "Phone": "+13528018001",
        "Street": "610 N 14th St",
        "City": "Leesburg",
        "State": "FL",
        "ZIP": 34748
    },
    {
        "name": "Gladiolus Drive",
        "AttWeb": "https://www.att.com/stores/florida/fort-myers/122034",
        "latitude": 26.5217422,
        "longitude": -81.8963195,
        "GMap": "https://maps.google.com/maps?cid=12073862970708541184",
        "Phone": "+12395900450",
        "Street": "8646 Gladiolus Dr",
        "City": "Fort Myers",
        "State": "FL",
        "ZIP": 33908
    },
    {
        "name": "Coral Walk",
        "AttWeb": "https://www.att.com/stores/florida/cape-coral/76376",
        "latitude": 26.67085971095838,
        "longitude": -81.93312000577873,
        "GMap": "https://maps.google.com/maps?cid=6036127646217621342",
        "Phone": "+12395747104",
        "Street": "1860 Pine Island Rd NE",
        "City": "Cape Coral",
        "State": "FL",
        "ZIP": 33909
    },
    {
        "name": "Coral Point Shopping Center",
        "AttWeb": "https://www.att.com/stores/florida/cape-coral/122035",
        "latitude": 26.6190823,
        "longitude": -81.939536,
        "GMap": "https://maps.google.com/maps?cid=3748300235640942306",
        "Phone": "+12395746466",
        "Street": "1631 Del Prado Blvd",
        "City": "Cape Coral",
        "State": "FL",
        "ZIP": 33990
    },
    {
        "name": "South Florida Avenue",
        "AttWeb": "https://www.att.com/stores/florida/lakeland/122047",
        "latitude": 28.012519,
        "longitude": -81.9573062,
        "GMap": "https://maps.google.com/maps?cid=1247145010690768144",
        "Phone": "+18636708868",
        "Street": "2803 S Florida Ave",
        "City": "Lakeland",
        "State": "FL",
        "ZIP": 33803
    },
    {
        "name": "Lady Lake",
        "AttWeb": "https://www.att.com/stores/florida/lady-lake/2980",
        "latitude": 28.958031854781023,
        "longitude": -81.96133081495657,
        "GMap": "https://maps.google.com/maps?cid=372934694767915388",
        "Phone": "+13524302752",
        "Street": "13751 N US Hwy 441",
        "City": "Lady Lake",
        "State": "FL",
        "ZIP": 32159
    },
    {
        "name": "Lakeland",
        "AttWeb": "https://www.att.com/stores/florida/lakeland/211322",
        "latitude": 28.0943047,
        "longitude": -81.9715562,
        "GMap": "https://maps.google.com/maps?cid=16391619478788653647",
        "Phone": "+18638532050",
        "Street": "4127 US Highway 98 N",
        "City": "Lakeland",
        "State": "FL",
        "ZIP": 33809
    },
    {
        "name": "Mulberry",
        "AttWeb": "https://www.att.com/stores/florida/mulberry/123913",
        "latitude": 27.93367693323685,
        "longitude": -81.97334358895489,
        "GMap": "https://maps.google.com/maps?cid=13761180869727825058",
        "Phone": "+18639434870",
        "Street": "6749 N Church Ave",
        "City": "Mulberry",
        "State": "FL",
        "ZIP": 33860
    },
    {
        "name": "Santa Barbara Boulevard",
        "AttWeb": "https://www.att.com/stores/florida/cape-coral/118429",
        "latitude": 26.60501478465142,
        "longitude": -81.97376780211926,
        "GMap": "https://maps.google.com/maps?cid=5321288418153466076",
        "Phone": "+12398004604",
        "Street": "2529 Santa Barbara Blvd",
        "City": "Cape Coral",
        "State": "FL",
        "ZIP": 33914
    },
    {
        "name": "The Villages",
        "AttWeb": "https://www.att.com/stores/florida/the-villages/118475",
        "latitude": 28.90818568123648,
        "longitude": -81.97425109122725,
        "GMap": "https://maps.google.com/maps?cid=12361529991071006807",
        "Phone": "+13523916009",
        "Street": "972 Old Mill Run",
        "City": "The Villages",
        "State": "FL",
        "ZIP": 32162
    },
    {
        "name": "Lakeside Village",
        "AttWeb": "https://www.att.com/stores/florida/lakeland/199095",
        "latitude": 28.0016666,
        "longitude": -81.9766411,
        "GMap": "https://maps.google.com/maps?cid=9812843465369951476",
        "Phone": "+18634567150",
        "Street": "1384 Town Center Drive",
        "City": "Lakeland",
        "State": "FL",
        "ZIP": 33803
    },
    {
        "name": "Pine Island Plaza",
        "AttWeb": "https://www.att.com/stores/florida/cape-coral/145853",
        "latitude": 26.64750387834348,
        "longitude": -81.98615095714047,
        "GMap": "https://maps.google.com/maps?cid=6791275258937030170",
        "Phone": "+12395731877",
        "Street": "537 SW Pine Island Road",
        "City": "Cape Coral",
        "State": "FL",
        "ZIP": 33991
    },
    {
        "name": "The Villages",
        "AttWeb": "https://www.att.com/stores/florida/the-villages/176152",
        "latitude": 28.8449571,
        "longitude": -82.021945,
        "GMap": "https://maps.google.com/maps?cid=17500273584220910843",
        "Phone": "+13526892066",
        "Street": "2755 West Torch Lake Drive",
        "City": "The Villages",
        "State": "FL",
        "ZIP": 32163
    },
    {
        "name": "Punta Gorda",
        "AttWeb": "https://www.att.com/stores/florida/punta-gorda/176192",
        "latitude": 26.9291339,
        "longitude": -82.0480596,
        "GMap": "https://maps.google.com/maps?cid=525187528590329529",
        "Phone": "+19416218494",
        "Street": "1001 S Tamiami Trail",
        "City": "Punta Gorda",
        "State": "FL",
        "ZIP": 33950
    },
    {
        "name": "Silver Springs Boulevard",
        "AttWeb": "https://www.att.com/stores/florida/ocala/119836",
        "latitude": 29.208972643330817,
        "longitude": -82.06756107514593,
        "GMap": "https://maps.google.com/maps?cid=1840868471623107832",
        "Phone": "+13524141219",
        "Street": "4914 E Silver Springs Blvd",
        "City": "Ocala",
        "State": "FL",
        "ZIP": 34470
    },
    {
        "name": "Maricamp Road",
        "AttWeb": "https://www.att.com/stores/florida/ocala/118441",
        "latitude": 29.1650912,
        "longitude": -82.0941219,
        "GMap": "https://maps.google.com/maps?cid=9894753335313856733",
        "Phone": "+13523871010",
        "Street": "3035 SE Maricamp Road",
        "City": "Ocala",
        "State": "FL",
        "ZIP": 34471
    },
    {
        "name": "Starke",
        "AttWeb": "https://www.att.com/stores/florida/starke/176143",
        "latitude": 29.9414,
        "longitude": -82.11098,
        "GMap": "https://maps.google.com/maps?cid=11830194852835469669",
        "Phone": "+19044525440",
        "Street": "531 S Walnut Street",
        "City": "Starke",
        "State": "FL",
        "ZIP": 32091
    },
    {
        "name": "Port Charlotte",
        "AttWeb": "https://www.att.com/stores/florida/port-charlotte/1564",
        "latitude": 26.994316092875955,
        "longitude": -82.1168515831232,
        "GMap": "https://maps.google.com/maps?cid=15032854934653778791",
        "Phone": "+19417433377",
        "Street": "2499 Tamiami Trl",
        "City": "Port Charlotte",
        "State": "FL",
        "ZIP": 33952
    },
    {
        "name": "Plant City",
        "AttWeb": "https://www.att.com/stores/florida/plant-city/122031",
        "latitude": 28.024013845787454,
        "longitude": -82.15006336569786,
        "GMap": "https://maps.google.com/maps?cid=9221724754675872411",
        "Phone": "+18137591323",
        "Street": "2513 Thonotosassa Rd",
        "City": "Plant City",
        "State": "FL",
        "ZIP": 33563
    },
    {
        "name": "North Port",
        "AttWeb": "https://www.att.com/stores/florida/north-port/192819",
        "latitude": 27.0653226,
        "longitude": -82.1577132,
        "GMap": "https://maps.google.com/maps?cid=5327103463618325133",
        "Phone": "+19412571365",
        "Street": "1560 Price Creek Way",
        "City": "North Port",
        "State": "FL",
        "ZIP": 34288
    },
    {
        "name": "Ccf Ocala Campus",
        "AttWeb": "https://www.att.com/stores/florida/ocala/177097",
        "latitude": 29.167128033035997,
        "longitude": -82.16849619721893,
        "GMap": "https://maps.google.com/maps?cid=1657747805312174116",
        "Phone": "+13522372404",
        "Street": "2645 College Road",
        "City": "Ocala",
        "State": "FL",
        "ZIP": 34471
    },
    {
        "name": "Paddock Mall",
        "AttWeb": "https://www.att.com/stores/florida/ocala/119744",
        "latitude": 29.158855433116198,
        "longitude": -82.17305561160468,
        "GMap": "https://maps.google.com/maps?cid=7047190357826846212",
        "Phone": "+13522912610",
        "Street": "3100 SW College Rd",
        "City": "Ocala",
        "State": "FL",
        "ZIP": 34474
    },
    {
        "name": "Dade City",
        "AttWeb": "https://www.att.com/stores/florida/dade-city/117559",
        "latitude": 28.329178548981144,
        "longitude": -82.18586683273315,
        "GMap": "https://maps.google.com/maps?cid=2610873584045184213",
        "Phone": "+13524375934",
        "Street": "11784 US Hwy 301",
        "City": "Dade City",
        "State": "FL",
        "ZIP": 33525
    },
    {
        "name": "Zephyrhills",
        "AttWeb": "https://www.att.com/stores/florida/zephyrhills/122044",
        "latitude": 28.2726482,
        "longitude": -82.1876374,
        "GMap": "https://maps.google.com/maps?cid=12262495429329192299",
        "Phone": "+18137137128",
        "Street": "7886 Gall Blvd",
        "City": "Zephyrhills",
        "State": "FL",
        "ZIP": 33541
    },
    {
        "name": "Sw College Road",
        "AttWeb": "https://www.att.com/stores/florida/ocala/96029",
        "latitude": 29.142395140055978,
        "longitude": -82.19378471374512,
        "GMap": "https://maps.google.com/maps?cid=11159300956043745632",
        "Phone": "+13528618150",
        "Street": "4405 SW College Road",
        "City": "Ocala",
        "State": "FL",
        "ZIP": 34474
    },
    {
        "name": "North Port",
        "AttWeb": "https://www.att.com/stores/florida/north-port/104837",
        "latitude": 27.037569048305198,
        "longitude": -82.21440358035665,
        "GMap": "https://maps.google.com/?cid=18248899293985766396",
        "Phone": "+19412596220",
        "Street": "17195 Tamiami Trail",
        "City": "North Port",
        "State": "FL",
        "ZIP": 34287
    },
    {
        "name": "Valrico",
        "AttWeb": "https://www.att.com/stores/florida/valrico/176179",
        "latitude": 27.939136679630835,
        "longitude": -82.25460199000477,
        "GMap": "https://maps.google.com/maps?cid=2397849324509458281",
        "Phone": "+18132785022",
        "Street": "1956 East Brandon Blvd",
        "City": "Valrico",
        "State": "FL",
        "ZIP": 33594
    },
    {
        "name": "East Bloomingdale Avenue",
        "AttWeb": "https://www.att.com/stores/florida/brandon/122039",
        "latitude": 27.8940802,
        "longitude": -82.2719362,
        "GMap": "https://maps.google.com/maps?cid=2028988857591257885",
        "Phone": "+18134684588",
        "Street": "812 E Bloomingdale Ave",
        "City": "Brandon",
        "State": "FL",
        "ZIP": 33511
    },
    {
        "name": "93rd Court Road",
        "AttWeb": "https://www.att.com/stores/florida/ocala/118411",
        "latitude": 29.060645298255423,
        "longitude": -82.27491046378896,
        "GMap": "https://maps.google.com/maps?cid=2675077331699954268",
        "Phone": "+13522363141",
        "Street": "11100 SW 93rd Court Road",
        "City": "Ocala",
        "State": "FL",
        "ZIP": 34481
    },
    {
        "name": "Riverview",
        "AttWeb": "https://www.att.com/stores/florida/riverview/117620",
        "latitude": 27.89310492345635,
        "longitude": -82.31496441964339,
        "GMap": "https://maps.google.com/maps?cid=15960740200012614025",
        "Phone": "+18135405401",
        "Street": "11212 Sullivan Street",
        "City": "Riverview",
        "State": "FL",
        "ZIP": 33578
    },
    {
        "name": "Brandon",
        "AttWeb": "https://www.att.com/stores/florida/brandon/360",
        "latitude": 27.938587537778847,
        "longitude": -82.31799624065422,
        "GMap": "https://maps.google.com/maps?cid=2156618093903406087",
        "Phone": "+18136843000",
        "Street": "2020 W Brandon Boulevard",
        "City": "Brandon",
        "State": "FL",
        "ZIP": 33511
    },
    {
        "name": "Causeway Brandon",
        "AttWeb": "https://www.att.com/stores/florida/brandon/2927",
        "latitude": 27.9221121,
        "longitude": -82.3290887,
        "GMap": "https://maps.google.com/maps?cid=10488919970886670588",
        "Phone": "+18136435288",
        "Street": "10945 Causeway Blvd",
        "City": "Brandon",
        "State": "FL",
        "ZIP": 33511
    },
    {
        "name": "Big Bend Road",
        "AttWeb": "https://www.att.com/stores/florida/riverview/118407",
        "latitude": 27.790372443807602,
        "longitude": -82.33343088374693,
        "GMap": "https://maps.google.com/maps?cid=10924866335373094298",
        "Phone": "+18135493320",
        "Street": "10645 Big Bend Road",
        "City": "Riverview",
        "State": "FL",
        "ZIP": 33569
    },
    {
        "name": "Gainesville",
        "AttWeb": "https://www.att.com/stores/florida/gainesville/116551",
        "latitude": 29.68790012633504,
        "longitude": -82.34075903892517,
        "GMap": "https://maps.google.com/?cid=3664443753115284604",
        "Phone": "+13524055350",
        "Street": "3720 NW 13th Street",
        "City": "Gainesville",
        "State": "FL",
        "ZIP": 32609
    },
    {
        "name": "Inverness",
        "AttWeb": "https://www.att.com/stores/florida/inverness/119818",
        "latitude": 28.8365592,
        "longitude": -82.3440856,
        "GMap": "https://maps.google.com/maps?cid=3897933515074610782",
        "Phone": "+13524194853",
        "Street": "1078 W Main St",
        "City": "Inverness",
        "State": "FL",
        "ZIP": 34450
    },
    {
        "name": "Riverview",
        "AttWeb": "https://www.att.com/stores/florida/riverview/176154",
        "latitude": 27.9129753,
        "longitude": -82.3471679,
        "GMap": "https://maps.google.com/maps?cid=15735260044741888077",
        "Phone": "+18139998962",
        "Street": "3914 South US Hwy 301",
        "City": "Riverview",
        "State": "FL",
        "ZIP": 33578
    },
    {
        "name": "Wesley Chapel",
        "AttWeb": "https://www.att.com/stores/florida/wesley-chapel/145854",
        "latitude": 28.2375143,
        "longitude": -82.3471888,
        "GMap": "https://maps.google.com/maps?cid=17854354439744438200",
        "Phone": "+18134355547",
        "Street": "28345 Sr 54",
        "City": "Wesley Chapel",
        "State": "FL",
        "ZIP": 33545
    },
    {
        "name": "Wesley Chapel",
        "AttWeb": "https://www.att.com/stores/florida/wesley-chapel/77388",
        "latitude": 28.1830283,
        "longitude": -82.352844,
        "GMap": "https://maps.google.com/maps?cid=2629832057094172060",
        "Phone": "+18139070715",
        "Street": "1770 Bruce B Downs Blvd",
        "City": "Wesley Chapel",
        "State": "FL",
        "ZIP": 33544
    },
    {
        "name": "The Walk at Highwoods Preserve",
        "AttWeb": "https://www.att.com/stores/florida/tampa/118373",
        "latitude": 28.131204831422497,
        "longitude": -82.36584919350526,
        "GMap": "https://maps.google.com/maps?cid=12243399706238465987",
        "Phone": "+18135757590",
        "Street": "18017 Highwoods Preserve Pkwy",
        "City": "Tampa",
        "State": "FL",
        "ZIP": 33647
    },
    {
        "name": "Hillsborough Boulevard",
        "AttWeb": "https://www.att.com/stores/florida/tampa/176180",
        "latitude": 27.996751873744675,
        "longitude": -82.3736259371803,
        "GMap": "https://maps.google.com/maps?cid=4873007877700412000",
        "Phone": "+18139065033",
        "Street": "7216 Hillsborough Blvd",
        "City": "Tampa",
        "State": "FL",
        "ZIP": 33610
    },
    {
        "name": "Ruskin",
        "AttWeb": "https://www.att.com/stores/florida/ruskin/116919",
        "latitude": 27.713793811324887,
        "longitude": -82.37416807782012,
        "GMap": "https://maps.google.com/?cid=15034932077479632415",
        "Phone": "+18139441033",
        "Street": "3846 Sun City Center Blvd",
        "City": "Ruskin",
        "State": "FL",
        "ZIP": 33573
    },
    {
        "name": "Gainesville Butler Plaza",
        "AttWeb": "https://www.att.com/stores/florida/gainesville/94545",
        "latitude": 29.622638762991244,
        "longitude": -82.3776595294475,
        "GMap": "https://maps.google.com/maps?cid=6915592136621303429",
        "Phone": "+13523383696",
        "Street": "3626 SW Archer Road",
        "City": "Gainesville",
        "State": "FL",
        "ZIP": 32608
    },
    {
        "name": "Venice",
        "AttWeb": "https://www.att.com/stores/florida/venice/84613",
        "latitude": 27.04920362420602,
        "longitude": -82.39690012766687,
        "GMap": "https://maps.google.com/maps?cid=3943290483534201750",
        "Phone": "+19414969029",
        "Street": "4100 South Tamiami Trail",
        "City": "Venice",
        "State": "FL",
        "ZIP": 34293
    },
    {
        "name": "Temple Terrace",
        "AttWeb": "https://www.att.com/stores/florida/temple-terrace/176176",
        "latitude": 28.0307138,
        "longitude": -82.3994214,
        "GMap": "https://maps.google.com/maps?cid=12784199808581450061",
        "Phone": "+18003310500",
        "Street": "8932 Bertha Palmer Blvd",
        "City": "Temple Terrace",
        "State": "FL",
        "ZIP": 33617
    },
    {
        "name": "Oaks",
        "AttWeb": "https://www.att.com/stores/florida/gainesville/150",
        "latitude": 29.656574779346737,
        "longitude": -82.40836948156362,
        "GMap": "https://maps.google.com/maps?cid=4855815744074505652",
        "Phone": "+13523339540",
        "Street": "6110 NW 4th Place",
        "City": "Gainesville",
        "State": "FL",
        "ZIP": 32607
    },
    {
        "name": "Jacaranda Plaza",
        "AttWeb": "https://www.att.com/stores/florida/venice/176187",
        "latitude": 27.074476284435335,
        "longitude": -82.42443975945905,
        "GMap": "https://maps.google.com/maps?cid=13381440978568268384",
        "Phone": "+19412184199",
        "Street": "1695 US 41 Bypass South",
        "City": "Venice",
        "State": "FL",
        "ZIP": 34293
    },
    {
        "name": "Terra Bella",
        "AttWeb": "https://www.att.com/stores/florida/lutz/176177",
        "latitude": 28.1865739,
        "longitude": -82.4247275,
        "GMap": "https://maps.google.com/maps?cid=11610033217062367191",
        "Phone": "+18134286513",
        "Street": "23647 Sr 54",
        "City": "Lutz",
        "State": "FL",
        "ZIP": 33559
    },
    {
        "name": "University South Florida",
        "AttWeb": "https://www.att.com/stores/florida/tampa/1745",
        "latitude": 28.053310961943364,
        "longitude": -82.43278370817097,
        "GMap": "https://maps.google.com/maps?cid=12815979931769890388",
        "Phone": "+18136326300",
        "Street": "2351 E Fowler Ave",
        "City": "Tampa",
        "State": "FL",
        "ZIP": 33612
    },
    {
        "name": "Dunnellon",
        "AttWeb": "https://www.att.com/stores/florida/dunnellon/176169",
        "latitude": 29.0602534,
        "longitude": -82.4561506,
        "GMap": "https://maps.google.com/maps?cid=4533603222019476923",
        "Phone": "+13525592460",
        "Street": "11352 N Williams Street",
        "City": "Dunnellon",
        "State": "FL",
        "ZIP": 34432
    },
    {
        "name": "Cattlemen Road",
        "AttWeb": "https://www.att.com/stores/florida/sarasota/113900",
        "latitude": 27.385348183782526,
        "longitude": -82.45652931779097,
        "GMap": "https://maps.google.com/maps?cid=15650201727135095906",
        "Phone": "+19413661329",
        "Street": "215 N. Cattlemen Rd",
        "City": "Sarasota",
        "State": "FL",
        "ZIP": 34243
    },
    {
        "name": "Nokomis",
        "AttWeb": "https://www.att.com/stores/florida/nokomis/176190",
        "latitude": 27.1399343,
        "longitude": -82.4600105,
        "GMap": "https://maps.google.com/maps?cid=3776672478831061099",
        "Phone": "+19418001485",
        "Street": "1187 North Tamiami Trail",
        "City": "Nokomis",
        "State": "FL",
        "ZIP": 34275
    },
    {
        "name": "Fruitville Road",
        "AttWeb": "https://www.att.com/stores/florida/sarasota/162011",
        "latitude": 27.3362392,
        "longitude": -82.4612838,
        "GMap": "https://maps.google.com/maps?cid=9218972487008679456",
        "Phone": "+19414044647",
        "Street": "5398 Fruitville Road",
        "City": "Sarasota",
        "State": "FL",
        "ZIP": 34232
    },
    {
        "name": "Lutz",
        "AttWeb": "https://www.att.com/stores/florida/lutz/162012",
        "latitude": 28.1780008,
        "longitude": -82.4697545,
        "GMap": "https://maps.google.com/maps?cid=11385894637214998462",
        "Phone": "+18137745609",
        "Street": "1408 N Dale Mabry",
        "City": "Lutz",
        "State": "FL",
        "ZIP": 33548
    },
    {
        "name": "Parrish",
        "AttWeb": "https://www.att.com/stores/florida/parrish/118471",
        "latitude": 27.542213313632754,
        "longitude": -82.47958779008991,
        "GMap": "https://maps.google.com/maps?cid=14842332145120154561",
        "Phone": "+19417766006",
        "Street": "8322 US 301 N",
        "City": "Parrish",
        "State": "FL",
        "ZIP": 34219
    },
    {
        "name": "Newberry",
        "AttWeb": "https://www.att.com/stores/florida/newberry/116554",
        "latitude": 29.655303108936074,
        "longitude": -82.49521552128192,
        "GMap": "https://maps.google.com/?cid=5256781639362904101",
        "Phone": "+13522440200",
        "Street": "14206 W Newberry Rd",
        "City": "Newberry",
        "State": "FL",
        "ZIP": 32669
    },
    {
        "name": "Alachua",
        "AttWeb": "https://www.att.com/stores/florida/alachua/116547",
        "latitude": 29.794380740642023,
        "longitude": -82.49617159366602,
        "GMap": "https://maps.google.com/maps?cid=10567581492195274887",
        "Phone": "+13524742500",
        "Street": "15210 NW Hwy 441",
        "City": "Alachua",
        "State": "FL",
        "ZIP": 32615
    },
    {
        "name": "North Tampa",
        "AttWeb": "https://www.att.com/stores/florida/tampa/941",
        "latitude": 28.050099033574032,
        "longitude": -82.50380992451954,
        "GMap": "https://maps.google.com/maps?cid=12990814924836909586",
        "Phone": "+18132642644",
        "Street": "11131 N Dale Mabry Highway",
        "City": "Tampa",
        "State": "FL",
        "ZIP": 33618
    },
    {
        "name": "South Dale Mabry",
        "AttWeb": "https://www.att.com/stores/florida/tampa/75752",
        "latitude": 27.933606469890446,
        "longitude": -82.50535298892021,
        "GMap": "https://maps.google.com/maps?cid=16634427975264750984",
        "Phone": "+18138790163",
        "Street": "1000 South Dale Mabry Hwy",
        "City": "Tampa",
        "State": "FL",
        "ZIP": 33629
    },
    {
        "name": "North Dale Mabry",
        "AttWeb": "https://www.att.com/stores/florida/tampa/119108",
        "latitude": 28.0861512,
        "longitude": -82.5059514,
        "GMap": "https://maps.google.com/maps?cid=9610478783550952488",
        "Phone": "+18133430028",
        "Street": "15000 N Dale Mabry Highway",
        "City": "Tampa",
        "State": "FL",
        "ZIP": 33618
    },
    {
        "name": "Brooksville",
        "AttWeb": "https://www.att.com/stores/florida/brooksville/117557",
        "latitude": 28.532391,
        "longitude": -82.5108971,
        "GMap": "https://maps.google.com/maps?cid=17725859480799611860",
        "Phone": "+13525970513",
        "Street": "13174 Cortez Blvd",
        "City": "Brooksville",
        "State": "FL",
        "ZIP": 34613
    },
    {
        "name": "University Pkwy",
        "AttWeb": "https://www.att.com/stores/florida/sarasota/104847",
        "latitude": 27.389798841636615,
        "longitude": -82.51926246722292,
        "GMap": "https://maps.google.com/?cid=3164291409038902732",
        "Phone": "+19417500100",
        "Street": "2515 University Parkway",
        "City": "Sarasota",
        "State": "FL",
        "ZIP": 34243
    },
    {
        "name": "Colonnade",
        "AttWeb": "https://www.att.com/stores/florida/sarasota/1568",
        "latitude": 27.29830735063486,
        "longitude": -82.52338433685031,
        "GMap": "https://maps.google.com/maps?cid=13248662086662096585",
        "Phone": "+19419256440",
        "Street": "2300 Bee Ridge Road",
        "City": "Sarasota",
        "State": "FL",
        "ZIP": 34239
    },
    {
        "name": "Spruce International",
        "AttWeb": "https://www.att.com/stores/florida/tampa/113168",
        "latitude": 27.9582519,
        "longitude": -82.5245285,
        "GMap": "https://maps.google.com/maps?cid=1966398278875350321",
        "Phone": "+18138728757",
        "Street": "1812 N. Westshore Blvd",
        "City": "Tampa",
        "State": "FL",
        "ZIP": 33607
    },
    {
        "name": "AT&T Store Spring Hill 4287 Mariner Blvd",
        "AttWeb": "https://www.att.com/stores/florida/spring-hill/196476",
        "latitude": 28.494206,
        "longitude": -82.539375,
        "GMap": "https://maps.google.com/maps?cid=1629159546676717",
        "Phone": "+18003310500",
        "Street": "4287 Mariner Blvd",
        "City": "Spring Hill",
        "State": "FL",
        "ZIP": 34609
    },
    {
        "name": "Spring Hill",
        "AttWeb": "https://www.att.com/stores/florida/spring-hill/177098",
        "latitude": 28.4940116,
        "longitude": -82.5396988,
        "GMap": "https://maps.google.com/maps?cid=903278631871043816",
        "Phone": "+13527012001",
        "Street": "4287 Mariner Blvd",
        "City": "Spring Hill",
        "State": "FL",
        "ZIP": 34609
    },
    {
        "name": "Waters Avenue",
        "AttWeb": "https://www.att.com/stores/florida/tampa/119653",
        "latitude": 28.025159817145212,
        "longitude": -82.54329666495323,
        "GMap": "https://maps.google.com/maps?cid=12896469524214796612",
        "Phone": "+18137658895",
        "Street": "5710 Waters Ave",
        "City": "Tampa",
        "State": "FL",
        "ZIP": 33634
    },
    {
        "name": "Bradenton",
        "AttWeb": "https://www.att.com/stores/florida/bradenton/81681",
        "latitude": 27.461932419327233,
        "longitude": -82.57479518651962,
        "GMap": "https://maps.google.com/maps?cid=15146570478057367847",
        "Phone": "+19417511813",
        "Street": "1313 Cortez Road W",
        "City": "Bradenton",
        "State": "FL",
        "ZIP": 34207
    },
    {
        "name": "Citrus Park",
        "AttWeb": "https://www.att.com/stores/florida/tampa/145856",
        "latitude": 28.064920832713717,
        "longitude": -82.58065898497028,
        "GMap": "https://maps.google.com/maps?cid=14930982934116049142",
        "Phone": "+18133433062",
        "Street": "8610 Citrus Park Drive",
        "City": "Tampa",
        "State": "FL",
        "ZIP": 33625
    },
    {
        "name": "Tampa",
        "AttWeb": "https://www.att.com/stores/florida/tampa/104853",
        "latitude": 27.99596807841599,
        "longitude": -82.5817514955998,
        "GMap": "https://maps.google.com/?cid=13761308652677230194",
        "Phone": "+18134404560",
        "Street": "6712 Memorial Highway",
        "City": "Tampa",
        "State": "FL",
        "ZIP": 33615
    },
    {
        "name": "Crystal River",
        "AttWeb": "https://www.att.com/stores/florida/crystal-river/116549",
        "latitude": 28.89928826501053,
        "longitude": -82.58922412991518,
        "GMap": "https://maps.google.com/maps?cid=744386682547212271",
        "Phone": "+13523649007",
        "Street": "706 NE US Hwy 19",
        "City": "Crystal River",
        "State": "FL",
        "ZIP": 34429
    },
    {
        "name": "Spring Hill",
        "AttWeb": "https://www.att.com/stores/florida/spring-hill/118680",
        "latitude": 28.4949993,
        "longitude": -82.5988616,
        "GMap": "https://maps.google.com/maps?cid=7421394589686338245",
        "Phone": "+13523564555",
        "Street": "4391 Commercial Way",
        "City": "Spring Hill",
        "State": "FL",
        "ZIP": 34606
    },
    {
        "name": "Springhill",
        "AttWeb": "https://www.att.com/stores/florida/spring-hill/80360",
        "latitude": 28.45947979416149,
        "longitude": -82.62821777725094,
        "GMap": "https://maps.google.com/maps?cid=9614649550893658574",
        "Phone": "+13526841905",
        "Street": "1879 Commercial Way",
        "City": "Spring Hill",
        "State": "FL",
        "ZIP": 34606
    },
    {
        "name": "Trinity",
        "AttWeb": "https://www.att.com/stores/florida/trinity/161285",
        "latitude": 28.1938414,
        "longitude": -82.6351459,
        "GMap": "https://maps.google.com/maps?cid=3254972449745551351",
        "Phone": "+17277530604",
        "Street": "10829 Sr 54",
        "City": "Trinity",
        "State": "FL",
        "ZIP": 34655
    },
    {
        "name": "Downtown St. Pete",
        "AttWeb": "https://www.att.com/stores/florida/saint-petersburg/209085",
        "latitude": 27.785456598994422,
        "longitude": -82.63879552310476,
        "GMap": "https://maps.google.com/maps?cid=13209692737235859249",
        "Phone": "+17274983691",
        "Street": "1300 4th Street North",
        "City": "Saint Petersburg",
        "State": "FL",
        "ZIP": 33701
    },
    {
        "name": "Royal Palm",
        "AttWeb": "https://www.att.com/stores/florida/st.-petersburg/221",
        "latitude": 27.818089675549025,
        "longitude": -82.63915159623139,
        "GMap": "https://maps.google.com/maps?cid=14890363469250108488",
        "Phone": "+17275225056",
        "Street": "5012 4th St N",
        "City": "St. Petersburg",
        "State": "FL",
        "ZIP": 33703
    },
    {
        "name": "West Hillsborough",
        "AttWeb": "https://www.att.com/stores/florida/tampa/209250",
        "latitude": 28.032905672266004,
        "longitude": -82.64798081327207,
        "GMap": "https://maps.google.com/maps?cid=15138375909511423011",
        "Phone": "+18134894137",
        "Street": "13998 West Hillsborough Ave",
        "City": "Tampa",
        "State": "FL",
        "ZIP": 33635
    },
    {
        "name": "New Port Richey",
        "AttWeb": "https://www.att.com/stores/florida/new-port-richey/209083",
        "latitude": 28.2367436,
        "longitude": -82.6711347,
        "GMap": "https://maps.google.com/maps?cid=1668119242553285101",
        "Phone": "+17273102976",
        "Street": "5427 Little Rd",
        "City": "New Port Richey",
        "State": "FL",
        "ZIP": 34655
    },
    {
        "name": "New Port Richey",
        "AttWeb": "https://www.att.com/stores/florida/new-port-richey/145738",
        "latitude": 28.2771335,
        "longitude": -82.6748908,
        "GMap": "https://maps.google.com/maps?cid=6199812652528870378",
        "Phone": "+17274780251",
        "Street": "8261 Little Road",
        "City": "New Port Richey",
        "State": "FL",
        "ZIP": 34654
    },
    {
        "name": "St Petersburg",
        "AttWeb": "https://www.att.com/stores/florida/st-petersburg/115056",
        "latitude": 27.782960631427866,
        "longitude": -82.67908675768945,
        "GMap": "https://maps.google.com/?cid=10412622452487829261",
        "Phone": "+17273627078",
        "Street": "1101 34th St N",
        "City": "St Petersburg",
        "State": "FL",
        "ZIP": 33713
    },
    {
        "name": "Lake City",
        "AttWeb": "https://www.att.com/stores/florida/lake-city/199096",
        "latitude": 30.1813163,
        "longitude": -82.6802139,
        "GMap": "https://maps.google.com/maps?cid=15186740097888691409",
        "Phone": "+13864066892",
        "Street": "2929 W US Highway 90",
        "City": "Lake City",
        "State": "FL",
        "ZIP": 32055
    },
    {
        "name": "Pinellas Park",
        "AttWeb": "https://www.att.com/stores/florida/pinellas-park/119768",
        "latitude": 27.8353384,
        "longitude": -82.6804633,
        "GMap": "https://maps.google.com/maps?cid=11355775799815163785",
        "Phone": "+17275225980",
        "Street": "6995 US Hwy 19 N",
        "City": "Pinellas Park",
        "State": "FL",
        "ZIP": 33781
    },
    {
        "name": "Bay Pointe",
        "AttWeb": "https://www.att.com/stores/florida/st.-petersburg/116559",
        "latitude": 27.721019,
        "longitude": -82.680763,
        "GMap": "https://maps.google.com/?cid=17242003820817329054",
        "Phone": "+17274710135",
        "Street": "5145 34th St S",
        "City": "St. Petersburg",
        "State": "FL",
        "ZIP": 33711
    },
    {
        "name": "Port Richey",
        "AttWeb": "https://www.att.com/stores/florida/port-richey/199089",
        "latitude": 28.282473985439758,
        "longitude": -82.71691030498027,
        "GMap": "https://maps.google.com/maps?cid=7240730866893766135",
        "Phone": "+17279778216",
        "Street": "8615 US Highway 19N",
        "City": "Port Richey",
        "State": "FL",
        "ZIP": 34668
    },
    {
        "name": "Clearwater",
        "AttWeb": "https://www.att.com/stores/florida/clearwater/119788",
        "latitude": 27.9684734,
        "longitude": -82.7291336,
        "GMap": "https://maps.google.com/maps?cid=10265341845020719225",
        "Phone": "+17277975900",
        "Street": "21561 US Hwy 19 N",
        "City": "Clearwater",
        "State": "FL",
        "ZIP": 33765
    },
    {
        "name": "Tyrone",
        "AttWeb": "https://www.att.com/stores/florida/st.-petersburg/199098",
        "latitude": 27.794254481775262,
        "longitude": -82.72916972637177,
        "GMap": "https://maps.google.com/maps?cid=672676361681821580",
        "Phone": "+17272143285",
        "Street": "2430 66th Street North",
        "City": "St. Petersburg",
        "State": "FL",
        "ZIP": 33710
    },
    {
        "name": "Clearwater Bay",
        "AttWeb": "https://www.att.com/stores/florida/clearwater/117373",
        "latitude": 27.9157969,
        "longitude": -82.7306,
        "GMap": "https://maps.google.com/maps?cid=1321336136821761200",
        "Phone": "+17275326125",
        "Street": "5395 E Bay Dr",
        "City": "Clearwater",
        "State": "FL",
        "ZIP": 33764
    },
    {
        "name": "Countryside",
        "AttWeb": "https://www.att.com/stores/florida/clearwater/81683",
        "latitude": 28.019860057475515,
        "longitude": -82.73554746056914,
        "GMap": "https://maps.google.com/maps?cid=12450075260048258216",
        "Phone": "+17277871170",
        "Street": "2460 State Road 580",
        "City": "Clearwater",
        "State": "FL",
        "ZIP": 33761
    },
    {
        "name": "Palm Harbor",
        "AttWeb": "https://www.att.com/stores/florida/palm-harbor/161288",
        "latitude": 28.0731673,
        "longitude": -82.7382864,
        "GMap": "https://maps.google.com/maps?cid=11028165530407227015",
        "Phone": "+17272604368",
        "Street": "33125 US Hwy 19",
        "City": "Palm Harbor",
        "State": "FL",
        "ZIP": 34684
    },
    {
        "name": "Tarpon Springs",
        "AttWeb": "https://www.att.com/stores/florida/tarpon-springs/119790",
        "latitude": 28.142637523562964,
        "longitude": -82.73955926299095,
        "GMap": "https://maps.google.com/maps?cid=8403473823157680465",
        "Phone": "+17279382210",
        "Street": "40743 US Hwy 19 N",
        "City": "Tarpon Springs",
        "State": "FL",
        "ZIP": 34689
    },
    {
        "name": "Bay Pines",
        "AttWeb": "https://www.att.com/stores/florida/saint-petersburg/119834",
        "latitude": 27.814397317444733,
        "longitude": -82.78013437986374,
        "GMap": "https://maps.google.com/maps?cid=2859107404157892807",
        "Phone": "+17278778077",
        "Street": "10195 Bay Pines Blvd",
        "City": "Saint Petersburg",
        "State": "FL",
        "ZIP": 33708
    },
    {
        "name": "Largo",
        "AttWeb": "https://www.att.com/stores/florida/largo/1733",
        "latitude": 27.8913843,
        "longitude": -82.7832682,
        "GMap": "https://maps.google.com/maps?cid=254553262742370760",
        "Phone": "+17275843220",
        "Street": "10500 Ulmerton Rd",
        "City": "Largo",
        "State": "FL",
        "ZIP": 33771
    },
    {
        "name": "Seminole",
        "AttWeb": "https://www.att.com/stores/florida/seminole/176147",
        "latitude": 27.83854243038404,
        "longitude": -82.7877934662295,
        "GMap": "https://maps.google.com/maps?cid=4120437137776691216",
        "Phone": "+17275924723",
        "Street": "10720 Park Blvd",
        "City": "Seminole",
        "State": "FL",
        "ZIP": 33772
    },
    {
        "name": "Ft Harrison Avenue",
        "AttWeb": "https://www.att.com/stores/florida/clearwater/119830",
        "latitude": 27.959127,
        "longitude": -82.7997923,
        "GMap": "https://maps.google.com/maps?cid=15339149207967280915",
        "Phone": "+17273144604",
        "Street": "607 S Ft Harrison Ave",
        "City": "Clearwater",
        "State": "FL",
        "ZIP": 33756
    },
    {
        "name": "Live Oak",
        "AttWeb": "https://www.att.com/stores/florida/live-oak/116553",
        "latitude": 30.318993,
        "longitude": -82.969301,
        "GMap": "https://maps.google.com/?cid=9962725551678121518",
        "Phone": "+13868660019",
        "Street": "2214 Ohio Avenue N",
        "City": "Live Oak",
        "State": "FL",
        "ZIP": 32064
    },
    {
        "name": "Tallahassee",
        "AttWeb": "https://www.att.com/stores/florida/tallahassee/198458",
        "latitude": 30.50900736053603,
        "longitude": -84.24618150313277,
        "GMap": "https://maps.google.com/maps?cid=17752968020691415998",
        "Phone": "+18502700330",
        "Street": "3521 Thomasville Road",
        "City": "Tallahassee",
        "State": "FL",
        "ZIP": 32309
    },
    {
        "name": "Apalachee Pkwy",
        "AttWeb": "https://www.att.com/stores/florida/tallahassee/105094",
        "latitude": 30.436522313465268,
        "longitude": -84.25378992810079,
        "GMap": "https://maps.google.com/?cid=9760642925477842895",
        "Phone": "+18508774131",
        "Street": "1500 Apalachee Pkwy",
        "City": "Tallahassee",
        "State": "FL",
        "ZIP": 32301
    },
    {
        "name": "Park & Magnolia",
        "AttWeb": "https://www.att.com/stores/florida/tallahassee/85483",
        "latitude": 30.441974669761695,
        "longitude": -84.26202852823099,
        "GMap": "https://maps.google.com/maps?cid=8009656838513431483",
        "Phone": "+18502220274",
        "Street": "100 N Magnolia Dr",
        "City": "Tallahassee",
        "State": "FL",
        "ZIP": 32301
    },
    {
        "name": "North Monroe Street",
        "AttWeb": "https://www.att.com/stores/florida/tallahassee/112447",
        "latitude": 30.4766614,
        "longitude": -84.297009,
        "GMap": "https://maps.google.com/?cid=434180099663810172",
        "Phone": "+18502700552",
        "Street": "2615 N Monroe Street",
        "City": "Tallahassee",
        "State": "FL",
        "ZIP": 32303
    },
    {
        "name": "Tennessee Street",
        "AttWeb": "https://www.att.com/stores/florida/tallahassee/107031",
        "latitude": 30.449316923755344,
        "longitude": -84.3101331814064,
        "GMap": "https://maps.google.com/maps?cid=1683559252510526437",
        "Phone": "+18505771460",
        "Street": "1706 W. Tennessee St",
        "City": "Tallahassee",
        "State": "FL",
        "ZIP": 32304
    },
    {
        "name": "Marianna",
        "AttWeb": "https://www.att.com/stores/florida/marianna/105097",
        "latitude": 30.729416250167244,
        "longitude": -85.1866004616295,
        "GMap": "https://maps.google.com/?cid=9417736916794310831",
        "Phone": "+18504827769",
        "Street": "4884 Malloy Plaza",
        "City": "Marianna",
        "State": "FL",
        "ZIP": 32448
    },
    {
        "name": "Callaway",
        "AttWeb": "https://www.att.com/stores/florida/callaway/105106",
        "latitude": 30.161338799422932,
        "longitude": -85.59052112395875,
        "GMap": "https://maps.google.com/?cid=1665599148568032931",
        "Phone": "+18508720586",
        "Street": "710 North Tyndall Parkway",
        "City": "Callaway",
        "State": "FL",
        "ZIP": 32404
    },
    {
        "name": "Avery Street",
        "AttWeb": "https://www.att.com/stores/florida/panama-city/79784",
        "latitude": 30.196008754779186,
        "longitude": -85.64914039110454,
        "GMap": "https://maps.google.com/maps?cid=11785010353011849079",
        "Phone": "+18507691616",
        "Street": "2694 Highway 77",
        "City": "Panama City",
        "State": "FL",
        "ZIP": 32405
    },
    {
        "name": "Panama City Beach",
        "AttWeb": "https://www.att.com/stores/florida/panama-city/117389",
        "latitude": 30.17938888502166,
        "longitude": -85.8008998632431,
        "GMap": "https://maps.google.com/maps?cid=16592781018567649020",
        "Phone": "+18507085727",
        "Street": "9998A Front Beach Rd",
        "City": "Panama City",
        "State": "FL",
        "ZIP": 32407
    },
    {
        "name": "Inlet Beach",
        "AttWeb": "https://www.att.com/stores/florida/inlet-beach/179542",
        "latitude": 30.281348420785566,
        "longitude": -86.01075274372482,
        "GMap": "https://maps.google.com/maps?cid=13606620655244193868",
        "Phone": "+18502310302",
        "Street": "12805 US Hwy 98 East",
        "City": "Inlet Beach",
        "State": "FL",
        "ZIP": 32461
    },
    {
        "name": "Defuniak Springs",
        "AttWeb": "https://www.att.com/stores/florida/defuniak-springs/110206",
        "latitude": 30.7056312,
        "longitude": -86.1221618,
        "GMap": "https://maps.google.com/?cid=1165871970855788779",
        "Phone": "+18509511272",
        "Street": "1179 Hwy 331 South",
        "City": "Defuniak Springs",
        "State": "FL",
        "ZIP": 32435
    },
    {
        "name": "Santa Rosa Beach",
        "AttWeb": "https://www.att.com/stores/florida/santa-rosa-beach/117587",
        "latitude": 30.375099826286554,
        "longitude": -86.21367696560668,
        "GMap": "https://maps.google.com/maps?cid=10265840430720233237",
        "Phone": "+18502672226",
        "Street": "2078 US Hwy 98 W",
        "City": "Santa Rosa Beach",
        "State": "FL",
        "ZIP": 32459
    },
    {
        "name": "Destin",
        "AttWeb": "https://www.att.com/stores/florida/destin/95032",
        "latitude": 30.389299077313296,
        "longitude": -86.42768938773156,
        "GMap": "https://maps.google.com/maps?cid=6684756627920104149",
        "Phone": "+18506502665",
        "Street": "34907 Emerald Coast Parkway",
        "City": "Destin",
        "State": "FL",
        "ZIP": 32541
    },
    {
        "name": "Niceville",
        "AttWeb": "https://www.att.com/stores/florida/niceville/110210",
        "latitude": 30.51294723365358,
        "longitude": -86.45033855306127,
        "GMap": "https://maps.google.com/?cid=17591893141325085327",
        "Phone": "+18508970222",
        "Street": "1514 John Sims Parkway",
        "City": "Niceville",
        "State": "FL",
        "ZIP": 32578
    },
    {
        "name": "Crestview",
        "AttWeb": "https://www.att.com/stores/florida/crestview/81320",
        "latitude": 30.7321942,
        "longitude": -86.5661737,
        "GMap": "https://maps.google.com/maps?cid=12330997178726065332",
        "Phone": "+18506894309",
        "Street": "2711 South Ferdon Boulevard",
        "City": "Crestview",
        "State": "FL",
        "ZIP": 32536
    },
    {
        "name": "Ft. Walton Beach",
        "AttWeb": "https://www.att.com/stores/florida/ft.-walton-beach/117613",
        "latitude": 30.417188,
        "longitude": -86.606664,
        "GMap": "https://maps.google.com/maps?cid=2160228396880417580",
        "Phone": "+18502266779",
        "Street": "75 Eglin Pkwy NE",
        "City": "Ft. Walton Beach",
        "State": "FL",
        "ZIP": 32548
    },
    {
        "name": "Mary Esther",
        "AttWeb": "https://www.att.com/stores/florida/mary-esther/84011",
        "latitude": 30.418618552048265,
        "longitude": -86.65263801813126,
        "GMap": "https://maps.google.com/maps?cid=12791339780402909977",
        "Phone": "+18502432062",
        "Street": "425 Mary Esther Blvd",
        "City": "Mary Esther",
        "State": "FL",
        "ZIP": 32569
    },
    {
        "name": "Navarre",
        "AttWeb": "https://www.att.com/stores/florida/navarre/110209",
        "latitude": 30.403881778664715,
        "longitude": -86.87887759626108,
        "GMap": "https://maps.google.com/?cid=4671224167673996126",
        "Phone": "+18509394409",
        "Street": "8232 Navarre Pkwy",
        "City": "Navarre",
        "State": "FL",
        "ZIP": 32566
    },
    {
        "name": "Gulf Breeze",
        "AttWeb": "https://www.att.com/stores/florida/gulf-breeze/110207",
        "latitude": 30.3899679,
        "longitude": -87.0619706,
        "GMap": "https://maps.google.com/?cid=34454231016525964",
        "Phone": "+18509343401",
        "Street": "1472 Tiger Park Lane",
        "City": "Gulf Breeze",
        "State": "FL",
        "ZIP": 32563
    },
    {
        "name": "Milton",
        "AttWeb": "https://www.att.com/stores/florida/milton/110208",
        "latitude": 30.6054286,
        "longitude": -87.0626678,
        "GMap": "https://maps.google.com/?cid=1386816305201958850",
        "Phone": "+18503120853",
        "Street": "6267 Hwy 90 W",
        "City": "Milton",
        "State": "FL",
        "ZIP": 32570
    },
    {
        "name": "Pace",
        "AttWeb": "https://www.att.com/stores/florida/pace/81861",
        "latitude": 30.60280519263279,
        "longitude": -87.12497661821544,
        "GMap": "https://maps.google.com/maps?cid=6784301432049685476",
        "Phone": "+18509943250",
        "Street": "4749 Hwy 90",
        "City": "Pace",
        "State": "FL",
        "ZIP": 32571
    },
    {
        "name": "Gulf Breeze Pkwy",
        "AttWeb": "https://www.att.com/stores/florida/gulf-breeze/119131",
        "latitude": 30.36631627029044,
        "longitude": -87.17001080353418,
        "GMap": "https://maps.google.com/maps?cid=9574738588827408402",
        "Phone": "+18502500969",
        "Street": "256 Gulf Breeze Pkwy",
        "City": "Gulf Breeze",
        "State": "FL",
        "ZIP": 32561
    },
    {
        "name": "Cordova Crossroads",
        "AttWeb": "https://www.att.com/stores/florida/pensacola/81481",
        "latitude": 30.4735897,
        "longitude": -87.2113361,
        "GMap": "https://maps.google.com/maps?cid=7295859472729379939",
        "Phone": "+18504843636",
        "Street": "5090 N. 9th Ave",
        "City": "Pensacola",
        "State": "FL",
        "ZIP": 32504
    },
    {
        "name": "Pensacola",
        "AttWeb": "https://www.att.com/stores/florida/pensacola/110211",
        "latitude": 30.5330486,
        "longitude": -87.2273406,
        "GMap": "https://maps.google.com/maps?cid=6616324770976060674",
        "Phone": "+18504711399",
        "Street": "1680 E Nine Mile Rd",
        "City": "Pensacola",
        "State": "FL",
        "ZIP": 32514
    },
    {
        "name": "Ensley",
        "AttWeb": "https://www.att.com/stores/florida/pensacola/110212",
        "latitude": 30.529476413369615,
        "longitude": -87.27396527116395,
        "GMap": "https://maps.google.com/?cid=15997360247930154400",
        "Phone": "+18508571533",
        "Street": "9000 Pensacola Blvd",
        "City": "Pensacola",
        "State": "FL",
        "ZIP": 32534
    },
    {
        "name": "Pine Forest",
        "AttWeb": "https://www.att.com/stores/florida/pensacola/110213",
        "latitude": 30.533575727575595,
        "longitude": -87.31281037607482,
        "GMap": "https://maps.google.com/?cid=15802747029557741546",
        "Phone": "+18504849797",
        "Street": "2159 West Nine Mile Road",
        "City": "Pensacola",
        "State": "FL",
        "ZIP": 32534
    },
    {
        "name": "Sorrento Road",
        "AttWeb": "https://www.att.com/stores/florida/pensacola/117577",
        "latitude": 30.32208047238133,
        "longitude": -87.41798153372963,
        "GMap": "https://maps.google.com/maps?cid=6288743732418008946",
        "Phone": "+18504928148",
        "Street": "13019 Sorrento Road",
        "City": "Pensacola",
        "State": "FL",
        "ZIP": 32507
    }
]