[
    {
        "name": "Kitty Hawk",
        "AttWeb": "https://www.att.com/stores/north-carolina/kitty-hawk/122109",
        "latitude": 36.0644543,
        "longitude": -75.6929679,
        "GMap": "https://maps.google.com/maps?cid=11800146821334820494",
        "Phone": "+12522551480",
        "Street": "3832 N Croatan Hwy",
        "City": "Kitty Hawk",
        "State": "NC",
        "ZIP": 27949
    },
    {
        "name": "Elizabeth City",
        "AttWeb": "https://www.att.com/stores/north-carolina/elizabeth-city/122118",
        "latitude": 36.294324941908805,
        "longitude": -76.2940094232788,
        "GMap": "https://maps.google.com/maps?cid=12593865842941214968",
        "Phone": "+12526212821",
        "Street": "3855 Conlon Way",
        "City": "Elizabeth City",
        "State": "NC",
        "ZIP": 27909
    },
    {
        "name": "Morehead City",
        "AttWeb": "https://www.att.com/stores/north-carolina/morehead-city/198476",
        "latitude": 34.73914274445968,
        "longitude": -76.80857672357888,
        "GMap": "https://maps.google.com/maps?cid=8230063696187098351",
        "Phone": "+12524990018",
        "Street": "5186 US Highway 70 West",
        "City": "Morehead City",
        "State": "NC",
        "ZIP": 28557
    },
    {
        "name": "New Bern",
        "AttWeb": "https://www.att.com/stores/north-carolina/new-bern/199111",
        "latitude": 35.102177134056554,
        "longitude": -77.09109572432652,
        "GMap": "https://maps.google.com/maps?cid=9543897228020509211",
        "Phone": "+12526492172",
        "Street": "3194 Dr Martin Luther King Jr Blvd",
        "City": "New Bern",
        "State": "NC",
        "ZIP": 28562
    },
    {
        "name": "Greenville",
        "AttWeb": "https://www.att.com/stores/north-carolina/greenville/81039",
        "latitude": 35.5856269198736,
        "longitude": -77.37115412950521,
        "GMap": "https://maps.google.com/maps?cid=4698893543496556098",
        "Phone": "+12523535777",
        "Street": "621 SE Greenville Blvd",
        "City": "Greenville",
        "State": "NC",
        "ZIP": 27858
    },
    {
        "name": "Jacksonville Mall",
        "AttWeb": "https://www.att.com/stores/north-carolina/jacksonville/161319",
        "latitude": 34.7651921,
        "longitude": -77.3809444,
        "GMap": "https://maps.google.com/maps?cid=15351068406776899705",
        "Phone": "+19103535223",
        "Street": "375 Jacksonville Mall",
        "City": "Jacksonville",
        "State": "NC",
        "ZIP": 28546
    },
    {
        "name": "Jacksonville Wstn Blvd.",
        "AttWeb": "https://www.att.com/stores/north-carolina/jacksonville/123223",
        "latitude": 34.78559116863334,
        "longitude": -77.4016733028833,
        "GMap": "https://maps.google.com/maps?cid=629214284659786965",
        "Phone": "+19109384455",
        "Street": "1325 Western Blvd",
        "City": "Jacksonville",
        "State": "NC",
        "ZIP": 28546
    },
    {
        "name": "Winterville",
        "AttWeb": "https://www.att.com/stores/north-carolina/winterville/177547",
        "latitude": 35.5485304265382,
        "longitude": -77.403225488153,
        "GMap": "https://maps.google.com/maps?cid=3717680540552088597",
        "Phone": "+12527563179",
        "Street": "740 W Fire Tower Rd",
        "City": "Winterville",
        "State": "NC",
        "ZIP": 28590
    },
    {
        "name": "Jacksonville",
        "AttWeb": "https://www.att.com/stores/north-carolina/jacksonville/12698",
        "latitude": 34.75485039772136,
        "longitude": -77.4601046160924,
        "GMap": "https://maps.google.com/?cid=9941696368862946711",
        "Phone": "+19103530414",
        "Street": "2720 Richlands Hwy",
        "City": "Jacksonville",
        "State": "NC",
        "ZIP": 28540
    },
    {
        "name": "Rocky Mount",
        "AttWeb": "https://www.att.com/stores/north-carolina/rocky-mount/44402",
        "latitude": 35.97973861791632,
        "longitude": -77.80860610799147,
        "GMap": "https://maps.google.com/?cid=12538924427853262403",
        "Phone": "+12529376330",
        "Street": "1479 Benvenue Road",
        "City": "Rocky Mount",
        "State": "NC",
        "ZIP": 27804
    },
    {
        "name": "International Drive",
        "AttWeb": "https://www.att.com/stores/north-carolina/wilmington/120708",
        "latitude": 34.24246578409439,
        "longitude": -77.82858172879514,
        "GMap": "https://maps.google.com/?cid=10378182839608853857",
        "Phone": "+19102568667",
        "Street": "955 International Dr",
        "City": "Wilmington",
        "State": "NC",
        "ZIP": 28405
    },
    {
        "name": "University Centre",
        "AttWeb": "https://www.att.com/stores/north-carolina/wilmington/81873",
        "latitude": 34.236499213950246,
        "longitude": -77.87339776754385,
        "GMap": "https://maps.google.com/maps?cid=4724742157536332986",
        "Phone": "+19104525300",
        "Street": "314 South College Road",
        "City": "Wilmington",
        "State": "NC",
        "ZIP": 28403
    },
    {
        "name": "Carolina Beach Road",
        "AttWeb": "https://www.att.com/stores/north-carolina/wilmington/120710",
        "latitude": 34.134936863073065,
        "longitude": -77.8940561413765,
        "GMap": "https://maps.google.com/?cid=1803923130730755205",
        "Phone": "+19103905433",
        "Street": "5621 Carolina Beach Rd",
        "City": "Wilmington",
        "State": "NC",
        "ZIP": 28412
    },
    {
        "name": "Wilmington",
        "AttWeb": "https://www.att.com/stores/north-carolina/wilmington/47650",
        "latitude": 34.216279,
        "longitude": -77.905622,
        "GMap": "https://maps.google.com/?cid=2597419977950369988",
        "Phone": "+19107948005",
        "Street": "3512 Oleander Dr",
        "City": "Wilmington",
        "State": "NC",
        "ZIP": 28403
    },
    {
        "name": "Goldsboro",
        "AttWeb": "https://www.att.com/stores/north-carolina/goldsboro/199080",
        "latitude": 35.38196681255932,
        "longitude": -77.93444254234282,
        "GMap": "https://maps.google.com/maps?cid=14135637914713998185",
        "Phone": "+19842074996",
        "Street": "1310 Parkway Dr",
        "City": "Goldsboro",
        "State": "NC",
        "ZIP": 27534
    },
    {
        "name": "Wilson",
        "AttWeb": "https://www.att.com/stores/north-carolina/wilson/199102",
        "latitude": 35.7412865,
        "longitude": -77.9619756,
        "GMap": "https://maps.google.com/maps?cid=12381276674025817732",
        "Phone": "+12523510043",
        "Street": "3401 Raleigh Rd 10-E",
        "City": "Wilson",
        "State": "NC",
        "ZIP": 27896
    },
    {
        "name": "Leland",
        "AttWeb": "https://www.att.com/stores/north-carolina/leland/177559",
        "latitude": 34.2147254,
        "longitude": -78.0195693,
        "GMap": "https://maps.google.com/maps?cid=16248148995681174301",
        "Phone": "+19104081168",
        "Street": "3572 Leland Town Centre Dr",
        "City": "Leland",
        "State": "NC",
        "ZIP": 28451
    },
    {
        "name": "Zebulon",
        "AttWeb": "https://www.att.com/stores/north-carolina/zebulon/176288",
        "latitude": 35.83055241074762,
        "longitude": -78.29431503106022,
        "GMap": "https://maps.google.com/maps?cid=13124743223436637416",
        "Phone": "+19193751210",
        "Street": "877 East Gannon Ave",
        "City": "Zebulon",
        "State": "NC",
        "ZIP": 27597
    },
    {
        "name": "Smithfield",
        "AttWeb": "https://www.att.com/stores/north-carolina/smithfield/77473",
        "latitude": 35.5218264575235,
        "longitude": -78.3075333035907,
        "GMap": "https://maps.google.com/?cid=16224607703230708970",
        "Phone": "+19199891989",
        "Street": "1321 N Brightleaf Blvd",
        "City": "Smithfield",
        "State": "NC",
        "ZIP": 27577
    },
    {
        "name": "Louisburg",
        "AttWeb": "https://www.att.com/stores/north-carolina/louisburg/176287",
        "latitude": 36.0825538,
        "longitude": -78.3187255,
        "GMap": "https://maps.google.com/maps?cid=15272192663583607586",
        "Phone": "+19194960386",
        "Street": "505 Retail Way",
        "City": "Louisburg",
        "State": "NC",
        "ZIP": 27549
    },
    {
        "name": "Clinton",
        "AttWeb": "https://www.att.com/stores/north-carolina/clinton/120718",
        "latitude": 34.9911766,
        "longitude": -78.3487548,
        "GMap": "https://maps.google.com/?cid=10279547628883623646",
        "Phone": "+19105902834",
        "Street": "1275 Sunset Avenue",
        "City": "Clinton",
        "State": "NC",
        "ZIP": 28328
    },
    {
        "name": "Knightdale",
        "AttWeb": "https://www.att.com/stores/north-carolina/knightdale/122117",
        "latitude": 35.7981786,
        "longitude": -78.5060239,
        "GMap": "https://maps.google.com/maps?cid=11155495311391535689",
        "Phone": "+19193283159",
        "Street": "1018 Shoppes at Midway Dr",
        "City": "Knightdale",
        "State": "NC",
        "ZIP": 27545
    },
    {
        "name": "Wakefield Commons",
        "AttWeb": "https://www.att.com/stores/north-carolina/raleigh/120688",
        "latitude": 35.9428625,
        "longitude": -78.5411198,
        "GMap": "https://maps.google.com/?cid=11834924440164161125",
        "Phone": "+19194536422",
        "Street": "10760 Wakefield Commons Drive",
        "City": "Raleigh",
        "State": "NC",
        "ZIP": 27614
    },
    {
        "name": "Wake Forest",
        "AttWeb": "https://www.att.com/stores/north-carolina/wake-forest/176290",
        "latitude": 35.9675318,
        "longitude": -78.5438451,
        "GMap": "https://maps.google.com/maps?cid=9953637601297009181",
        "Phone": "+19194351848",
        "Street": "11721 Retail Drive",
        "City": "Wake Forest",
        "State": "NC",
        "ZIP": 27587
    },
    {
        "name": "Triangle Town Center",
        "AttWeb": "https://www.att.com/stores/north-carolina/raleigh/122822",
        "latitude": 35.8662125953213,
        "longitude": -78.57463129453242,
        "GMap": "https://maps.google.com/maps?cid=16610575128191371257",
        "Phone": "+19197929005",
        "Street": "5959 Triangle Town",
        "City": "Raleigh",
        "State": "NC",
        "ZIP": 27616
    },
    {
        "name": "Capital Boulevard",
        "AttWeb": "https://www.att.com/stores/north-carolina/raleigh/104811",
        "latitude": 35.8555874,
        "longitude": -78.5805141,
        "GMap": "https://maps.google.com/maps?cid=6758029641436218714",
        "Phone": "+19198754204",
        "Street": "5100 Capital Blvd",
        "City": "Raleigh",
        "State": "NC",
        "ZIP": 27616
    },
    {
        "name": "White Oak Crossing",
        "AttWeb": "https://www.att.com/stores/north-carolina/garner/80643",
        "latitude": 35.69393,
        "longitude": -78.5836679,
        "GMap": "https://maps.google.com/maps?cid=6741550302847943140",
        "Phone": "+19197721560",
        "Street": "7055 White Oak Rd",
        "City": "Garner",
        "State": "NC",
        "ZIP": 27529
    },
    {
        "name": "Falls of Neuse",
        "AttWeb": "https://www.att.com/stores/north-carolina/raleigh/120690",
        "latitude": 35.86832718147269,
        "longitude": -78.62159588591385,
        "GMap": "https://maps.google.com/?cid=15418434674129951066",
        "Phone": "+19193889338",
        "Street": "6301 Falls Of Neuse Rd",
        "City": "Raleigh",
        "State": "NC",
        "ZIP": 27615
    },
    {
        "name": "Main at North Hills",
        "AttWeb": "https://www.att.com/stores/north-carolina/raleigh/79173",
        "latitude": 35.8366602,
        "longitude": -78.6428384,
        "GMap": "https://maps.google.com/maps?cid=7039991241706073547",
        "Phone": "+19197831463",
        "Street": "4120 Main At North Hills Street",
        "City": "Raleigh",
        "State": "NC",
        "ZIP": 27609
    },
    {
        "name": "Garner",
        "AttWeb": "https://www.att.com/stores/north-carolina/garner/176289",
        "latitude": 35.7221056215084,
        "longitude": -78.65237563558196,
        "GMap": "https://maps.google.com/maps?cid=2567780269969779599",
        "Phone": "+19199177687",
        "Street": "4203 Fayetteville Rd",
        "City": "Garner",
        "State": "NC",
        "ZIP": 27603
    },
    {
        "name": "Cameron Village",
        "AttWeb": "https://www.att.com/stores/north-carolina/raleigh/120714",
        "latitude": 35.7899833,
        "longitude": -78.6631672,
        "GMap": "https://maps.google.com/?cid=1282372795703623894",
        "Phone": "+19192058004",
        "Street": "413 Oberlin Road",
        "City": "Raleigh",
        "State": "NC",
        "ZIP": 27605
    },
    {
        "name": "Townridge Village",
        "AttWeb": "https://www.att.com/stores/north-carolina/raleigh/120692",
        "latitude": 35.861547336828345,
        "longitude": -78.70598215707777,
        "GMap": "https://maps.google.com/?cid=2085100083432227744",
        "Phone": "+19197815959",
        "Street": "6572 Glenwood Ave",
        "City": "Raleigh",
        "State": "NC",
        "ZIP": 27612
    },
    {
        "name": "Walnut Street",
        "AttWeb": "https://www.att.com/stores/north-carolina/cary/81331",
        "latitude": 35.770428444349676,
        "longitude": -78.76076483680538,
        "GMap": "https://maps.google.com/maps?cid=11700931423370034295",
        "Phone": "+19194621996",
        "Street": "1117 Walnut Street",
        "City": "Cary",
        "State": "NC",
        "ZIP": 27511
    },
    {
        "name": "Fuquay Varina",
        "AttWeb": "https://www.att.com/stores/north-carolina/fuquay-varina/44398",
        "latitude": 35.5922556095007,
        "longitude": -78.77970278263098,
        "GMap": "https://maps.google.com/?cid=13538937874446943328",
        "Phone": "+19195579975",
        "Street": "1237 N Main Street",
        "City": "Fuquay Varina",
        "State": "NC",
        "ZIP": 27526
    },
    {
        "name": "Brier Creek Commons",
        "AttWeb": "https://www.att.com/stores/north-carolina/raleigh/82022",
        "latitude": 35.91131802555497,
        "longitude": -78.78249871641418,
        "GMap": "https://maps.google.com/maps?cid=11135468041621884209",
        "Phone": "+19198065292",
        "Street": "8005 Brier Creek Pkwy",
        "City": "Raleigh",
        "State": "NC",
        "ZIP": 27617
    },
    {
        "name": "Morrisville",
        "AttWeb": "https://www.att.com/stores/north-carolina/morrisville/44397",
        "latitude": 35.80741401888984,
        "longitude": -78.81563633680344,
        "GMap": "https://maps.google.com/?cid=9691390318342931006",
        "Phone": "+19194621775",
        "Street": "2000 Market Center Drive",
        "City": "Morrisville",
        "State": "NC",
        "ZIP": 27560
    },
    {
        "name": "Holly Springs",
        "AttWeb": "https://www.att.com/stores/north-carolina/holly-springs/207788",
        "latitude": 35.66283358043777,
        "longitude": -78.84928782076263,
        "GMap": "https://maps.google.com/maps?cid=6459558307231919623",
        "Phone": "+19192675024",
        "Street": "156 Grand Hill Place",
        "City": "Holly Springs",
        "State": "NC",
        "ZIP": 27540
    },
    {
        "name": "Churchill Commons",
        "AttWeb": "https://www.att.com/stores/north-carolina/durham/175315",
        "latitude": 35.87654334668952,
        "longitude": -78.85065932638929,
        "GMap": "https://maps.google.com/maps?cid=17112312373841481486",
        "Phone": "+19194740570",
        "Street": "5431 Page Road",
        "City": "Durham",
        "State": "NC",
        "ZIP": 27703
    },
    {
        "name": "Northwood",
        "AttWeb": "https://www.att.com/stores/north-carolina/fayetteville/80397",
        "latitude": 35.12453850485245,
        "longitude": -78.88001874850482,
        "GMap": "https://maps.google.com/maps?cid=14052285091817382510",
        "Phone": "+19104880353",
        "Street": "4621 Ramsey Rd",
        "City": "Fayetteville",
        "State": "NC",
        "ZIP": 28311
    },
    {
        "name": "Alston Town Center",
        "AttWeb": "https://www.att.com/stores/north-carolina/cary/12485",
        "latitude": 35.833662,
        "longitude": -78.8815075,
        "GMap": "https://maps.google.com/?cid=11052055440895186439",
        "Phone": "+19193801512",
        "Street": "5034 Arco Street",
        "City": "Cary",
        "State": "NC",
        "ZIP": 27519
    },
    {
        "name": "Apex",
        "AttWeb": "https://www.att.com/stores/north-carolina/apex/68403",
        "latitude": 35.74556965384947,
        "longitude": -78.88500362634659,
        "GMap": "https://maps.google.com/maps?cid=12401852773860468776",
        "Phone": "+19193679557",
        "Street": "2001 Creekside Landing Drive",
        "City": "Apex",
        "State": "NC",
        "ZIP": 27502
    },
    {
        "name": "Roxboro Street",
        "AttWeb": "https://www.att.com/stores/north-carolina/durham/120694",
        "latitude": 36.041374,
        "longitude": -78.898981,
        "GMap": "https://maps.google.com/maps?cid=12522214877959651348",
        "Phone": "+19192895105",
        "Street": "3800 N Roxboro Street",
        "City": "Durham",
        "State": "NC",
        "ZIP": 27704
    },
    {
        "name": "Herndon Center",
        "AttWeb": "https://www.att.com/stores/north-carolina/durham/95033",
        "latitude": 35.90617595240821,
        "longitude": -78.93656355281774,
        "GMap": "https://maps.google.com/maps?cid=15178513565394686939",
        "Phone": "+19192480532",
        "Street": "6709 Fayetteville Rd",
        "City": "Durham",
        "State": "NC",
        "ZIP": 27713
    },
    {
        "name": "Durham",
        "AttWeb": "https://www.att.com/stores/north-carolina/durham/120730",
        "latitude": 35.96989808756681,
        "longitude": -78.95948949253028,
        "GMap": "https://maps.google.com/?cid=7061225118945996768",
        "Phone": "+19194022002",
        "Street": "4010 Durham Chapel Hill Blvd",
        "City": "Durham",
        "State": "NC",
        "ZIP": 27707
    },
    {
        "name": "Cross Creek Mall",
        "AttWeb": "https://www.att.com/stores/north-carolina/fayetteville/119092",
        "latitude": 35.07218617118295,
        "longitude": -78.9617501951065,
        "GMap": "https://maps.google.com/maps?cid=4393483670672623809",
        "Phone": "+19108675993",
        "Street": "419 Cross Creek Mall",
        "City": "Fayetteville",
        "State": "NC",
        "ZIP": 28303
    },
    {
        "name": "Hope Mills",
        "AttWeb": "https://www.att.com/stores/north-carolina/hope-mills/120702",
        "latitude": 34.98345239516257,
        "longitude": -78.96618290674593,
        "GMap": "https://maps.google.com/?cid=3999732038389500259",
        "Phone": "+19104240205",
        "Street": "3020 North Main Street",
        "City": "Hope Mills",
        "State": "NC",
        "ZIP": 28348
    },
    {
        "name": "Skibo Road",
        "AttWeb": "https://www.att.com/stores/north-carolina/fayetteville/81887",
        "latitude": 35.06831336255965,
        "longitude": -78.96721333265305,
        "GMap": "https://maps.google.com/maps?cid=12464160899401141173",
        "Phone": "+19108602000",
        "Street": "1918 Skibo Rd",
        "City": "Fayetteville",
        "State": "NC",
        "ZIP": 28314
    },
    {
        "name": "Spring Lake",
        "AttWeb": "https://www.att.com/stores/north-carolina/spring-lake/120712",
        "latitude": 35.17516212449142,
        "longitude": -78.96790905522539,
        "GMap": "https://maps.google.com/?cid=7508951540817195219",
        "Phone": "+19104362800",
        "Street": "630 Lillington Hwy",
        "City": "Spring Lake",
        "State": "NC",
        "ZIP": 28390
    },
    {
        "name": "Roxboro",
        "AttWeb": "https://www.att.com/stores/north-carolina/roxboro/117406",
        "latitude": 36.37732914256185,
        "longitude": -78.98340851068497,
        "GMap": "https://maps.google.com/maps?cid=7737295491855040580",
        "Phone": "+13363223186",
        "Street": "1021 Durham Rd",
        "City": "Roxboro",
        "State": "NC",
        "ZIP": 27573
    },
    {
        "name": "Patterson Place",
        "AttWeb": "https://www.att.com/stores/north-carolina/durham/82088",
        "latitude": 35.95210283737641,
        "longitude": -78.99358481168747,
        "GMap": "https://maps.google.com/maps?cid=2800304620748701701",
        "Phone": "+19194032590",
        "Street": "5348 McFarland Road",
        "City": "Durham",
        "State": "NC",
        "ZIP": 27707
    },
    {
        "name": "Lumberton",
        "AttWeb": "https://www.att.com/stores/north-carolina/lumberton/120706",
        "latitude": 34.66770908507506,
        "longitude": -79.00035477552933,
        "GMap": "https://maps.google.com/?cid=6384999000270035263",
        "Phone": "+19013529222",
        "Street": "5071 Fayetteville Rd",
        "City": "Lumberton",
        "State": "NC",
        "ZIP": 28360
    },
    {
        "name": "Chapel Hill",
        "AttWeb": "https://www.att.com/stores/north-carolina/chapel-hill/120716",
        "latitude": 35.92785274031991,
        "longitude": -79.0268779898638,
        "GMap": "https://maps.google.com/?cid=9364562209151265079",
        "Phone": "+19199039949",
        "Street": "201 S. Estes Drive",
        "City": "Chapel Hill",
        "State": "NC",
        "ZIP": 27514
    },
    {
        "name": "Sanford",
        "AttWeb": "https://www.att.com/stores/north-carolina/sanford/77472",
        "latitude": 35.4506505178135,
        "longitude": -79.13512072673234,
        "GMap": "https://maps.google.com/?cid=2112268951832976868",
        "Phone": "+19197769244",
        "Street": "3090 S Horner Blvd",
        "City": "Sanford",
        "State": "NC",
        "ZIP": 27332
    },
    {
        "name": "Mebane",
        "AttWeb": "https://www.att.com/stores/north-carolina/mebane/122102",
        "latitude": 36.06994837862284,
        "longitude": -79.27160114049911,
        "GMap": "https://maps.google.com/maps?cid=15161090949987342568",
        "Phone": "+13369152373",
        "Street": "3886 Brundage Ln",
        "City": "Mebane",
        "State": "NC",
        "ZIP": 27302
    },
    {
        "name": "Aberdeen",
        "AttWeb": "https://www.att.com/stores/north-carolina/aberdeen/81745",
        "latitude": 35.15627274990166,
        "longitude": -79.41466835464837,
        "GMap": "https://maps.google.com/maps?cid=4608545476632320917",
        "Phone": "+19106929900",
        "Street": "1813 North Sand Hills Blvd",
        "City": "Aberdeen",
        "State": "NC",
        "ZIP": 28315
    },
    {
        "name": "Laurinburg",
        "AttWeb": "https://www.att.com/stores/north-carolina/laurinburg/145092",
        "latitude": 34.762973389552506,
        "longitude": -79.48346143391336,
        "GMap": "https://maps.google.com/maps?cid=12471483915282113896",
        "Phone": "+19108525074",
        "Street": "903 S 401 Bypass Highway",
        "City": "Laurinburg",
        "State": "NC",
        "ZIP": 28352
    },
    {
        "name": "Burlington",
        "AttWeb": "https://www.att.com/stores/north-carolina/burlington/76104",
        "latitude": 36.068268644647766,
        "longitude": -79.508684049365,
        "GMap": "https://maps.google.com/maps?cid=11925091708176253855",
        "Phone": "+13365850051",
        "Street": "3124 Waltham Blvd",
        "City": "Burlington",
        "State": "NC",
        "ZIP": 27215
    },
    {
        "name": "Reidsville",
        "AttWeb": "https://www.att.com/stores/north-carolina/reidsville/12590",
        "latitude": 36.33916315415029,
        "longitude": -79.69509546667653,
        "GMap": "https://maps.google.com/?cid=17655898531376656751",
        "Phone": "+13363614040",
        "Street": "1537 Freeway Dr",
        "City": "Reidsville",
        "State": "NC",
        "ZIP": 27320
    },
    {
        "name": "Rockingham",
        "AttWeb": "https://www.att.com/stores/north-carolina/rockingham/145093",
        "latitude": 34.91603533428587,
        "longitude": -79.74351696945729,
        "GMap": "https://maps.google.com/maps?cid=1211400938755636963",
        "Phone": "+19109977099",
        "Street": "1788 E Broad Ave",
        "City": "Rockingham",
        "State": "NC",
        "ZIP": 28379
    },
    {
        "name": "Pyramids Village",
        "AttWeb": "https://www.att.com/stores/north-carolina/greensboro/100645",
        "latitude": 36.10902474619668,
        "longitude": -79.75452000859832,
        "GMap": "https://maps.google.com/?cid=7350480214702353106",
        "Phone": "+13365547990",
        "Street": "2105 Pyramids Village Blvd",
        "City": "Greensboro",
        "State": "NC",
        "ZIP": 27405
    },
    {
        "name": "Asheboro",
        "AttWeb": "https://www.att.com/stores/north-carolina/asheboro/44396",
        "latitude": 35.69776712903522,
        "longitude": -79.78707490765476,
        "GMap": "https://maps.google.com/?cid=18025094337769661431",
        "Phone": "+13366262300",
        "Street": "1334 East Dixie Drive",
        "City": "Asheboro",
        "State": "NC",
        "ZIP": 27203
    },
    {
        "name": "Elmsley Ct",
        "AttWeb": "https://www.att.com/stores/north-carolina/greensboro/77471",
        "latitude": 36.00227446299307,
        "longitude": -79.79274787789905,
        "GMap": "https://maps.google.com/?cid=3863382790687263386",
        "Phone": "+13364820300",
        "Street": "3711 Elmsly Court",
        "City": "Greensboro",
        "State": "NC",
        "ZIP": 27406
    },
    {
        "name": "Friendly Center Road",
        "AttWeb": "https://www.att.com/stores/north-carolina/greensboro/80464",
        "latitude": 36.086813,
        "longitude": -79.8291815,
        "GMap": "https://maps.google.com/maps?cid=8257071970459926041",
        "Phone": "+13362866000",
        "Street": "816 Friendly Center Road",
        "City": "Greensboro",
        "State": "NC",
        "ZIP": 27408
    },
    {
        "name": "Battleground Avenue",
        "AttWeb": "https://www.att.com/stores/north-carolina/greensboro/42239",
        "latitude": 36.1137573517943,
        "longitude": -79.8334773152601,
        "GMap": "https://maps.google.com/?cid=4682633227647534329",
        "Phone": "+13362860308",
        "Street": "2924 Battleground Ave",
        "City": "Greensboro",
        "State": "NC",
        "ZIP": 27410
    },
    {
        "name": "Four Seasons Boulevard",
        "AttWeb": "https://www.att.com/stores/north-carolina/greensboro/113940",
        "latitude": 36.03966079938405,
        "longitude": -79.83815711408616,
        "GMap": "https://maps.google.com/?cid=15979648931584040847",
        "Phone": "+13363160344",
        "Street": "410 Four Seasons Town Center",
        "City": "Greensboro",
        "State": "NC",
        "ZIP": 27407
    },
    {
        "name": "Wendover Avenue",
        "AttWeb": "https://www.att.com/stores/north-carolina/greensboro/81471",
        "latitude": 36.05538449042646,
        "longitude": -79.89489773170197,
        "GMap": "https://maps.google.com/maps?cid=1071740360312190168",
        "Phone": "+13362997329",
        "Street": "4405 Wendover Ave",
        "City": "Greensboro",
        "State": "NC",
        "ZIP": 27407
    },
    {
        "name": "South Main Street",
        "AttWeb": "https://www.att.com/stores/north-carolina/high-point/122100",
        "latitude": 35.9252273980174,
        "longitude": -79.98279690742493,
        "GMap": "https://maps.google.com/maps?cid=13552320866270774212",
        "Phone": "+13369072307",
        "Street": "2749 S Main St",
        "City": "High Point",
        "State": "NC",
        "ZIP": 27263
    },
    {
        "name": "High Point",
        "AttWeb": "https://www.att.com/stores/north-carolina/high-point/107013",
        "latitude": 35.9851437967931,
        "longitude": -80.02391759941656,
        "GMap": "https://maps.google.com/maps?cid=12522142822055098270",
        "Phone": "+13368874110",
        "Street": "2300-C North Main Street",
        "City": "High Point",
        "State": "NC",
        "ZIP": 27262
    },
    {
        "name": "Wadesboro",
        "AttWeb": "https://www.att.com/stores/north-carolina/wadesboro/145094",
        "latitude": 34.9668781,
        "longitude": -80.0607854,
        "GMap": "https://maps.google.com/maps?cid=5314486561410852979",
        "Phone": "+17046951093",
        "Street": "1009 E. Caswell Street",
        "City": "Wadesboro",
        "State": "NC",
        "ZIP": 28170
    },
    {
        "name": "Kernersville",
        "AttWeb": "https://www.att.com/stores/north-carolina/kernersville/78496",
        "latitude": 36.1085233,
        "longitude": -80.0974255,
        "GMap": "https://maps.google.com/?cid=5922279684753910361",
        "Phone": "+13369925348",
        "Street": "1020 S Main",
        "City": "Kernersville",
        "State": "NC",
        "ZIP": 27284
    },
    {
        "name": "Albemarle",
        "AttWeb": "https://www.att.com/stores/north-carolina/albemarle/119858",
        "latitude": 35.34237794883081,
        "longitude": -80.17532587051397,
        "GMap": "https://maps.google.com/maps?cid=12323051344802427088",
        "Phone": "+17049860937",
        "Street": "723 Leonard Ave",
        "City": "Albemarle",
        "State": "NC",
        "ZIP": 28001
    },
    {
        "name": "Lexington",
        "AttWeb": "https://www.att.com/stores/north-carolina/lexington/117405",
        "latitude": 35.79269860993268,
        "longitude": -80.26155196131646,
        "GMap": "https://maps.google.com/maps?cid=8771716587692041953",
        "Phone": "+13367778777",
        "Street": "288 Lowes Blvd",
        "City": "Lexington",
        "State": "NC",
        "ZIP": 27292
    },
    {
        "name": "Winston Summit Point",
        "AttWeb": "https://www.att.com/stores/north-carolina/winston-salem/1221",
        "latitude": 36.1893997,
        "longitude": -80.2745819,
        "GMap": "https://maps.google.com/maps?cid=5414889040660650775",
        "Phone": "+13363772120",
        "Street": "197 Summit Square Blvd",
        "City": "Winston Salem",
        "State": "NC",
        "ZIP": 27105
    },
    {
        "name": "Winston Stratford Road",
        "AttWeb": "https://www.att.com/stores/north-carolina/winston-salem/1220",
        "latitude": 36.0922714676458,
        "longitude": -80.27989891367838,
        "GMap": "https://maps.google.com/maps?cid=6955370024743635578",
        "Phone": "+13367266000",
        "Street": "205 S Stratford Rd",
        "City": "Winston Salem",
        "State": "NC",
        "ZIP": 27103
    },
    {
        "name": "Hanes Mall",
        "AttWeb": "https://www.att.com/stores/north-carolina/winston-salem/122718",
        "latitude": 36.06831797472664,
        "longitude": -80.30103303802872,
        "GMap": "https://maps.google.com/maps?cid=14641982674710812629",
        "Phone": "+13368423981",
        "Street": "3320 Silas Creek Pkwy",
        "City": "Winston Salem",
        "State": "NC",
        "ZIP": 27103
    },
    {
        "name": "Winston Shoppes on Little Creek",
        "AttWeb": "https://www.att.com/stores/north-carolina/winston-salem/79823",
        "latitude": 36.067324938101294,
        "longitude": -80.32075761115948,
        "GMap": "https://maps.google.com/maps?cid=9638500079834925607",
        "Phone": "+13366593873",
        "Street": "3708 Creekshire Ct",
        "City": "Winston-Salem",
        "State": "NC",
        "ZIP": 27103
    },
    {
        "name": "Salisbury",
        "AttWeb": "https://www.att.com/stores/north-carolina/salisbury/198521",
        "latitude": 35.65280519240241,
        "longitude": -80.46133049570085,
        "GMap": "https://maps.google.com/maps?cid=12254861095271866553",
        "Phone": "+17048835421",
        "Street": "247 Faith Rd",
        "City": "Salisbury",
        "State": "NC",
        "ZIP": 28147
    },
    {
        "name": "Monroe",
        "AttWeb": "https://www.att.com/stores/north-carolina/monroe/81840",
        "latitude": 35.022030666559836,
        "longitude": -80.57914333037394,
        "GMap": "https://maps.google.com/maps?cid=180294509570220367",
        "Phone": "+17042258606",
        "Street": "2943 Monroe Way",
        "City": "Monroe",
        "State": "NC",
        "ZIP": 28110
    },
    {
        "name": "Kannapolis",
        "AttWeb": "https://www.att.com/stores/north-carolina/kannapolis/80573",
        "latitude": 35.46438552416581,
        "longitude": -80.59347978551193,
        "GMap": "https://maps.google.com/maps?cid=1173215145725426059",
        "Phone": "+17047861080",
        "Street": "2237 Spider Dr",
        "City": "Kannapolis",
        "State": "NC",
        "ZIP": 28083
    },
    {
        "name": "Shoppes at Davidson Corner",
        "AttWeb": "https://www.att.com/stores/north-carolina/concord/86564",
        "latitude": 35.4322659916648,
        "longitude": -80.60599427432305,
        "GMap": "https://maps.google.com/?cid=11810919923786222287",
        "Phone": "+17042555970",
        "Street": "1243 Concord Pkwy Lane",
        "City": "Concord",
        "State": "NC",
        "ZIP": 28025
    },
    {
        "name": "Mount Airy",
        "AttWeb": "https://www.att.com/stores/north-carolina/mount-airy/122097",
        "latitude": 36.4800771,
        "longitude": -80.6166158,
        "GMap": "https://maps.google.com/maps?cid=3975208148558414006",
        "Phone": "+13367899888",
        "Street": "1996 Rockford S",
        "City": "Mount Airy",
        "State": "NC",
        "ZIP": 27030
    },
    {
        "name": "Indian Trail",
        "AttWeb": "https://www.att.com/stores/north-carolina/indian-trail/119149",
        "latitude": 35.04851799583347,
        "longitude": -80.64631381364097,
        "GMap": "https://maps.google.com/maps?cid=10906593398632429214",
        "Phone": "+17046357480",
        "Street": "6701 Old Monroe Road",
        "City": "Indian Trail",
        "State": "NC",
        "ZIP": 28079
    },
    {
        "name": "Mint Hill",
        "AttWeb": "https://www.att.com/stores/north-carolina/mint-hill/119856",
        "latitude": 35.17067998287464,
        "longitude": -80.66069819038603,
        "GMap": "https://maps.google.com/maps?cid=16170268321153591965",
        "Phone": "+17045733346",
        "Street": "6820 Matthews Mint Hill Rd",
        "City": "Mint Hill",
        "State": "NC",
        "ZIP": 28227
    },
    {
        "name": "Albermarle",
        "AttWeb": "https://www.att.com/stores/north-carolina/charlotte/177560",
        "latitude": 35.2112238,
        "longitude": -80.6898616,
        "GMap": "https://maps.google.com/maps?cid=13475256592462967607",
        "Phone": "+17045953109",
        "Street": "9030 Albemarle Rd",
        "City": "Charlotte",
        "State": "NC",
        "ZIP": 28227
    },
    {
        "name": "Wesley Chapel",
        "AttWeb": "https://www.att.com/stores/north-carolina/wesley-chapel/119852",
        "latitude": 35.00002504391958,
        "longitude": -80.69835261271692,
        "GMap": "https://maps.google.com/maps?cid=14072736057566633204",
        "Phone": "+17048435998",
        "Street": "5924 Monroe Weddington Rd",
        "City": "Wesley Chapel",
        "State": "NC",
        "ZIP": 28104
    },
    {
        "name": "Concord Mills",
        "AttWeb": "https://www.att.com/stores/north-carolina/concord/81308",
        "latitude": 35.3702563,
        "longitude": -80.7176858,
        "GMap": "https://maps.google.com/maps?cid=4900138683727021815",
        "Phone": "+17049795001",
        "Street": "8031 Concord Mills Blvd",
        "City": "Concord",
        "State": "NC",
        "ZIP": 28027
    },
    {
        "name": "Concord Mills Mall",
        "AttWeb": "https://www.att.com/stores/north-carolina/concord/119094",
        "latitude": 35.370488,
        "longitude": -80.724687,
        "GMap": "https://maps.google.com/maps?cid=13664078187004187216",
        "Phone": "+17049798603",
        "Street": "8111 Concord Mills Blvd",
        "City": "Concord",
        "State": "NC",
        "ZIP": 28027
    },
    {
        "name": "Independence Square East",
        "AttWeb": "https://www.att.com/stores/north-carolina/charlotte/1193",
        "latitude": 35.1637822,
        "longitude": -80.73926,
        "GMap": "https://maps.google.com/maps?cid=5389306701658896268",
        "Phone": "+17045691221",
        "Street": "7211 E Independence Blvd",
        "City": "Charlotte",
        "State": "NC",
        "ZIP": 28227
    },
    {
        "name": "Promenade",
        "AttWeb": "https://www.att.com/stores/north-carolina/charlotte/1191",
        "latitude": 35.3034287,
        "longitude": -80.7488506,
        "GMap": "https://maps.google.com/maps?cid=15614019884763205679",
        "Phone": "+17045030800",
        "Street": "230 E Wt Harris Blvd",
        "City": "Charlotte",
        "State": "NC",
        "ZIP": 28262
    },
    {
        "name": "Belgate Nc",
        "AttWeb": "https://www.att.com/stores/north-carolina/charlotte/123886",
        "latitude": 35.290445,
        "longitude": -80.765418,
        "GMap": "https://maps.google.com/maps?cid=16216654368097425023",
        "Phone": "+19802292177",
        "Street": "6925 University City Blvd",
        "City": "Charlotte",
        "State": "NC",
        "ZIP": 28262
    },
    {
        "name": "AT&T Store Charlotte 9905 Sandy Rock Place",
        "AttWeb": "https://www.att.com/stores/north-carolina/charlotte/211219",
        "latitude": 35.0517464,
        "longitude": -80.7735986,
        "GMap": "https://maps.google.com/maps?cid=8514001771329005851",
        "Phone": "+17042466518",
        "Street": "9905 Sandy Rock Place",
        "City": "Charlotte",
        "State": "NC",
        "ZIP": 28277
    },
    {
        "name": "Arboretum",
        "AttWeb": "https://www.att.com/stores/north-carolina/charlotte/94544",
        "latitude": 35.0984796,
        "longitude": -80.7803756,
        "GMap": "https://maps.google.com/maps?cid=7743856434100262707",
        "Phone": "+17045405183",
        "Street": "8016 Providence Rd",
        "City": "Charlotte",
        "State": "NC",
        "ZIP": 28277
    },
    {
        "name": "Prosperity",
        "AttWeb": "https://www.att.com/stores/north-carolina/charlotte/177611",
        "latitude": 35.371599945104855,
        "longitude": -80.78495865867289,
        "GMap": "https://maps.google.com/maps?cid=5757793004298778590",
        "Phone": "+17047275126",
        "Street": "5920 Highland Shoppes Dr",
        "City": "Charlotte",
        "State": "NC",
        "ZIP": 28269
    },
    {
        "name": "Cotswold",
        "AttWeb": "https://www.att.com/stores/north-carolina/charlotte/114607",
        "latitude": 35.176164422811006,
        "longitude": -80.7995784110451,
        "GMap": "https://maps.google.com/?cid=16679179126169427737",
        "Phone": "+17043155357",
        "Street": "106 C S Sharon Amity Road",
        "City": "Charlotte",
        "State": "NC",
        "ZIP": 28211
    },
    {
        "name": "Blakeney",
        "AttWeb": "https://www.att.com/stores/north-carolina/charlotte/82075",
        "latitude": 35.03405313872824,
        "longitude": -80.80812815765478,
        "GMap": "https://maps.google.com/maps?cid=10728478288096218060",
        "Phone": "+17045432330",
        "Street": "9840 Rea Road",
        "City": "Charlotte",
        "State": "NC",
        "ZIP": 28277
    },
    {
        "name": "Sharon Road",
        "AttWeb": "https://www.att.com/stores/north-carolina/charlotte/119655",
        "latitude": 35.1521844,
        "longitude": -80.8310339,
        "GMap": "https://maps.google.com/maps?cid=15247307396480634102",
        "Phone": "+19809384515",
        "Street": "4400 Sharon Road",
        "City": "Charlotte",
        "State": "NC",
        "ZIP": 28211
    },
    {
        "name": "South Kings Drive",
        "AttWeb": "https://www.att.com/stores/north-carolina/charlotte/44395",
        "latitude": 35.209459,
        "longitude": -80.835546,
        "GMap": "https://maps.google.com/?cid=4532806276770457160",
        "Phone": "+17043338006",
        "Street": "601 S Kings Drive",
        "City": "Charlotte",
        "State": "NC",
        "ZIP": 28204
    },
    {
        "name": "Shoppes at Fairview",
        "AttWeb": "https://www.att.com/stores/north-carolina/charlotte/76209",
        "latitude": 35.151287685112365,
        "longitude": -80.84147027523693,
        "GMap": "https://maps.google.com/maps?cid=5831935819351629230",
        "Phone": "+17045579236",
        "Street": "5940 Fairview Rd",
        "City": "Charlotte",
        "State": "NC",
        "ZIP": 28210
    },
    {
        "name": "Northlake Mall",
        "AttWeb": "https://www.att.com/stores/north-carolina/charlotte/118763",
        "latitude": 35.35197877547088,
        "longitude": -80.84997621825232,
        "GMap": "https://maps.google.com/maps?cid=12115586373087254352",
        "Phone": "+19804982409",
        "Street": "6801 Northlake Mall Drive",
        "City": "Charlotte",
        "State": "NC",
        "ZIP": 28216
    },
    {
        "name": "Northlake",
        "AttWeb": "https://www.att.com/stores/north-carolina/charlotte/2597",
        "latitude": 35.34902778357482,
        "longitude": -80.85590139267714,
        "GMap": "https://maps.google.com/maps?cid=13418041686278171944",
        "Phone": "+17045961865",
        "Street": "9330 Center Lake Dr",
        "City": "Charlotte",
        "State": "NC",
        "ZIP": 28216
    },
    {
        "name": "Huntersville",
        "AttWeb": "https://www.att.com/stores/north-carolina/huntersville/76332",
        "latitude": 35.441953663399225,
        "longitude": -80.8568000793457,
        "GMap": "https://maps.google.com/maps?cid=1120844019533093615",
        "Phone": "+17048928995",
        "Street": "9932 Knockando Lane",
        "City": "Huntersville",
        "State": "NC",
        "ZIP": 28078
    },
    {
        "name": "Statesville",
        "AttWeb": "https://www.att.com/stores/north-carolina/statesville/198522",
        "latitude": 35.7910059,
        "longitude": -80.8574313,
        "GMap": "https://maps.google.com/maps?cid=14005338380201931361",
        "Phone": "+17047616558",
        "Street": "1691 East Broad Street",
        "City": "Statesville",
        "State": "NC",
        "ZIP": 28625
    },
    {
        "name": "Charlotte",
        "AttWeb": "https://www.att.com/stores/north-carolina/charlotte/161320",
        "latitude": 35.20021447565076,
        "longitude": -80.86648150188716,
        "GMap": "https://maps.google.com/maps?cid=5522428494129314354",
        "Phone": "+19802368917",
        "Street": "2725 South Blvd",
        "City": "Charlotte",
        "State": "NC",
        "ZIP": 28209
    },
    {
        "name": "Mooresville",
        "AttWeb": "https://www.att.com/stores/north-carolina/mooresville/84019",
        "latitude": 35.59544870141794,
        "longitude": -80.86767777800566,
        "GMap": "https://maps.google.com/maps?cid=17954184712486703514",
        "Phone": "+17046609397",
        "Street": "534 River Hwy",
        "City": "Mooresville",
        "State": "NC",
        "ZIP": 28117
    },
    {
        "name": "Pineville",
        "AttWeb": "https://www.att.com/stores/north-carolina/pineville/1212",
        "latitude": 35.0855941,
        "longitude": -80.8763007,
        "GMap": "https://maps.google.com/maps?cid=12777509995361078604",
        "Phone": "+17045425570",
        "Street": "9433 Pineville Matthews Rd",
        "City": "Pineville",
        "State": "NC",
        "ZIP": 28134
    },
    {
        "name": "Turnersburg Highway",
        "AttWeb": "https://www.att.com/stores/north-carolina/statesville/122960",
        "latitude": 35.810616250910456,
        "longitude": -80.87634529315808,
        "GMap": "https://maps.google.com/maps?cid=11119677790295253050",
        "Phone": "+17042912721",
        "Street": "151 Turnersburg Hwy 21",
        "City": "Statesville",
        "State": "NC",
        "ZIP": 28625
    },
    {
        "name": "South Tryon",
        "AttWeb": "https://www.att.com/stores/north-carolina/charlotte/119862",
        "latitude": 35.13647348545177,
        "longitude": -80.93657679857182,
        "GMap": "https://maps.google.com/maps?cid=10065605648608315062",
        "Phone": "+17045882017",
        "Street": "8943 S Tryon St",
        "City": "Charlotte",
        "State": "NC",
        "ZIP": 28273
    },
    {
        "name": "Riverbend",
        "AttWeb": "https://www.att.com/stores/north-carolina/charlotte/77469",
        "latitude": 35.3270606,
        "longitude": -80.9419326,
        "GMap": "https://maps.google.com/?cid=10930164582721310587",
        "Phone": "+17049717490",
        "Street": "9516 Riverbend Village Drive",
        "City": "Charlotte",
        "State": "NC",
        "ZIP": 28216
    },
    {
        "name": "Steelcroft Pkwy",
        "AttWeb": "https://www.att.com/stores/north-carolina/charlotte/119848",
        "latitude": 35.102019499104905,
        "longitude": -80.99107952513123,
        "GMap": "https://maps.google.com/maps?cid=3676176756120404551",
        "Phone": "+17047793756",
        "Street": "13545 Steelecroft Pkwy",
        "City": "Charlotte",
        "State": "NC",
        "ZIP": 28278
    },
    {
        "name": "Denver",
        "AttWeb": "https://www.att.com/stores/north-carolina/denver/77468",
        "latitude": 35.44740240329791,
        "longitude": -81.00246313957996,
        "GMap": "https://maps.google.com/?cid=1425784749896321170",
        "Phone": "+17042574049",
        "Street": "7260 Hwy 73",
        "City": "Denver",
        "State": "NC",
        "ZIP": 28037
    },
    {
        "name": "Belmont",
        "AttWeb": "https://www.att.com/stores/north-carolina/belmont/119854",
        "latitude": 35.25425813239294,
        "longitude": -81.04174308855363,
        "GMap": "https://maps.google.com/maps?cid=16855368390886013206",
        "Phone": "+17048252915",
        "Street": "6509 Wilkinson Blvd",
        "City": "Belmont",
        "State": "NC",
        "ZIP": 28012
    },
    {
        "name": "Cox Road",
        "AttWeb": "https://www.att.com/stores/north-carolina/gastonia/80135",
        "latitude": 35.263266689124684,
        "longitude": -81.13409184766306,
        "GMap": "https://maps.google.com/maps?cid=5008564102658601915",
        "Phone": "+17048658300",
        "Street": "411 Cox Rd",
        "City": "Gastonia",
        "State": "NC",
        "ZIP": 28054
    },
    {
        "name": "Wilkesboro",
        "AttWeb": "https://www.att.com/stores/north-carolina/wilkesboro/122098",
        "latitude": 36.1495201735233,
        "longitude": -81.1964575946331,
        "GMap": "https://maps.google.com/maps?cid=7428952893558921630",
        "Phone": "+13366672090",
        "Street": "1903 Addison Ave",
        "City": "Wilkesboro",
        "State": "NC",
        "ZIP": 28697
    },
    {
        "name": "Conover",
        "AttWeb": "https://www.att.com/stores/north-carolina/conover/145091",
        "latitude": 35.72497974386735,
        "longitude": -81.21008723974228,
        "GMap": "https://maps.google.com/maps?cid=6158500891383631044",
        "Phone": "+18284652848",
        "Street": "1217 N. NC 16 Hwy",
        "City": "Conover",
        "State": "NC",
        "ZIP": 28613
    },
    {
        "name": "Gastonia",
        "AttWeb": "https://www.att.com/stores/north-carolina/gastonia/117404",
        "latitude": 35.2597834,
        "longitude": -81.2235228,
        "GMap": "https://maps.google.com/maps?cid=8406196699928942251",
        "Phone": "+19808880638",
        "Street": "117 N Myrtle School Rd",
        "City": "Gastonia",
        "State": "NC",
        "ZIP": 28052
    },
    {
        "name": "Lincolnton",
        "AttWeb": "https://www.att.com/stores/north-carolina/lincolnton/122113",
        "latitude": 35.490924856444366,
        "longitude": -81.24747700994703,
        "GMap": "https://maps.google.com/maps?cid=10514179465201077805",
        "Phone": "+17047364300",
        "Street": "433 N Generals Blvd",
        "City": "Lincolnton",
        "State": "NC",
        "ZIP": 28092
    },
    {
        "name": "Hickory",
        "AttWeb": "https://www.att.com/stores/north-carolina/hickory/84550",
        "latitude": 35.7082096,
        "longitude": -81.31056,
        "GMap": "https://maps.google.com/maps?cid=1306309664509241378",
        "Phone": "+18283279030",
        "Street": "1528 US Highway 70 SE",
        "City": "Hickory",
        "State": "NC",
        "ZIP": 28602
    },
    {
        "name": "Shelby",
        "AttWeb": "https://www.att.com/stores/north-carolina/shelby/198441",
        "latitude": 35.273896789600364,
        "longitude": -81.51113816431223,
        "GMap": "https://maps.google.com/maps?cid=4781229066890311944",
        "Phone": "+19804041785",
        "Street": "1625 E Dixon Blvd",
        "City": "Shelby",
        "State": "NC",
        "ZIP": 28152
    },
    {
        "name": "Lenoir",
        "AttWeb": "https://www.att.com/stores/north-carolina/lenoir/122115",
        "latitude": 35.9252269,
        "longitude": -81.5267049,
        "GMap": "https://maps.google.com/maps?cid=12788137699590395134",
        "Phone": "+18283944903",
        "Street": "825 Blowing Rock Blvd",
        "City": "Lenoir",
        "State": "NC",
        "ZIP": 28645
    },
    {
        "name": "Boone",
        "AttWeb": "https://www.att.com/stores/north-carolina/boone/122112",
        "latitude": 36.19888449102564,
        "longitude": -81.65901526808739,
        "GMap": "https://maps.google.com/maps?cid=14891711545349533446",
        "Phone": "+18283554102",
        "Street": "1760 Blowing Rock Rd",
        "City": "Boone",
        "State": "NC",
        "ZIP": 28607
    },
    {
        "name": "Morganton",
        "AttWeb": "https://www.att.com/stores/north-carolina/morganton/119864",
        "latitude": 35.72671178100975,
        "longitude": -81.70224357666564,
        "GMap": "https://maps.google.com/maps?cid=11317382689964497784",
        "Phone": "+18284377975",
        "Street": "A130 Morganton Heights Blvd",
        "City": "Morganton",
        "State": "NC",
        "ZIP": 28655
    },
    {
        "name": "Forest City",
        "AttWeb": "https://www.att.com/stores/north-carolina/forest-city/119846",
        "latitude": 35.33375495664757,
        "longitude": -81.89547747373581,
        "GMap": "https://maps.google.com/maps?cid=15498899350083099993",
        "Phone": "+18283820271",
        "Street": "112 Plaza Dr",
        "City": "Forest City",
        "State": "NC",
        "ZIP": 28043
    },
    {
        "name": "Meridian Place",
        "AttWeb": "https://www.att.com/stores/north-carolina/asheville/122116",
        "latitude": 35.503413100993924,
        "longitude": -82.52468347549438,
        "GMap": "https://maps.google.com/maps?cid=5061483712697220901",
        "Phone": "+18283335234",
        "Street": "1831 Hendersonville Rd",
        "City": "Asheville",
        "State": "NC",
        "ZIP": 28803
    },
    {
        "name": "Asheville Tunnel Road",
        "AttWeb": "https://www.att.com/stores/north-carolina/asheville/95036",
        "latitude": 35.582858,
        "longitude": -82.52506,
        "GMap": "https://maps.google.com/maps?cid=2442462924091711108",
        "Phone": "+18282981833",
        "Street": "4 S. Tunnel Road",
        "City": "Asheville",
        "State": "NC",
        "ZIP": 28805
    },
    {
        "name": "Asheville",
        "AttWeb": "https://www.att.com/stores/north-carolina/asheville/120903",
        "latitude": 35.580912,
        "longitude": -82.526677,
        "GMap": "https://maps.google.com/maps?cid=6058778829688660739",
        "Phone": "+18285525131",
        "Street": "3 South Tunnel Road",
        "City": "Asheville",
        "State": "NC",
        "ZIP": 28805
    },
    {
        "name": "Arden",
        "AttWeb": "https://www.att.com/stores/north-carolina/arden/122114",
        "latitude": 35.449422346996826,
        "longitude": -82.52883017063141,
        "GMap": "https://maps.google.com/maps?cid=2309677438474482637",
        "Phone": "+18283481287",
        "Street": "335 Airport Rd",
        "City": "Arden",
        "State": "NC",
        "ZIP": 28704
    },
    {
        "name": "Brevard",
        "AttWeb": "https://www.att.com/stores/north-carolina/brevard/180374",
        "latitude": 35.245324,
        "longitude": -82.722994,
        "GMap": "https://maps.google.com/maps?cid=3309012558768689089",
        "Phone": "+18283885960",
        "Street": "192 Asheville Hwy",
        "City": "Brevard",
        "State": "NC",
        "ZIP": 28712
    }
]