[
    {
        "name": "College Drive",
        "AttWeb": "https://www.att.com/stores/nevada/henderson/111847",
        "latitude": 36.0129783,
        "longitude": -114.9639976,
        "GMap": "https://maps.google.com/maps?cid=12010655844916629549",
        "Phone": "+17025650611",
        "Street": "591 College Drive",
        "City": "Henderson",
        "State": "NV",
        "ZIP": 89015
    },
    {
        "name": "Galleria Mall",
        "AttWeb": "https://www.att.com/stores/nevada/henderson/12354",
        "latitude": 36.067184,
        "longitude": -115.0438795,
        "GMap": "https://maps.google.com/maps?cid=14455832168724436437",
        "Phone": "+17024568868",
        "Street": "1300 West Sunset Road",
        "City": "Henderson",
        "State": "NV",
        "ZIP": 89014
    },
    {
        "name": "Wigwam Center",
        "AttWeb": "https://www.att.com/stores/nevada/henderson/201695",
        "latitude": 36.03550266473501,
        "longitude": -115.04534754136911,
        "GMap": "https://maps.google.com/maps?cid=4343686278090445026",
        "Phone": "+17252136761",
        "Street": "126 N Stephanie St",
        "City": "Henderson",
        "State": "NV",
        "ZIP": 89074
    },
    {
        "name": "Whitney Ranch",
        "AttWeb": "https://www.att.com/stores/nevada/henderson/77452",
        "latitude": 36.0652667,
        "longitude": -115.0478693,
        "GMap": "https://maps.google.com/maps?cid=12544336442119367667",
        "Phone": "+17024342929",
        "Street": "609 N Stephanie Street",
        "City": "Henderson",
        "State": "NV",
        "ZIP": 89014
    },
    {
        "name": "Stewart & Nellis",
        "AttWeb": "https://www.att.com/stores/nevada/las-vegas/81486",
        "latitude": 36.16788589597266,
        "longitude": -115.0624378619325,
        "GMap": "https://maps.google.com/maps?cid=13903019551405014464",
        "Phone": "+17027310320",
        "Street": "325 N. Nellis Blvd",
        "City": "Las Vegas",
        "State": "NV",
        "ZIP": 89110
    },
    {
        "name": "Boulder Crossroads",
        "AttWeb": "https://www.att.com/stores/nevada/las-vegas/117447",
        "latitude": 36.1109794,
        "longitude": -115.0631673,
        "GMap": "https://maps.google.com/maps?cid=4907842754162937495",
        "Phone": "+17024762999",
        "Street": "5060 Boulder Hwy",
        "City": "Las Vegas",
        "State": "NV",
        "ZIP": 89122
    },
    {
        "name": "Nellis Boulevard",
        "AttWeb": "https://www.att.com/stores/nevada/las-vegas/117444",
        "latitude": 36.14306464839385,
        "longitude": -115.06611764431,
        "GMap": "https://maps.google.com/maps?cid=9065773577297473405",
        "Phone": "+17022070457",
        "Street": "2585 S Nellis Blvd",
        "City": "Las Vegas",
        "State": "NV",
        "ZIP": 89121
    },
    {
        "name": "Green Valley Pkwy",
        "AttWeb": "https://www.att.com/stores/nevada/henderson/118367",
        "latitude": 36.0225453,
        "longitude": -115.0834087,
        "GMap": "https://maps.google.com/maps?cid=9578250423976377960",
        "Phone": "+17022632131",
        "Street": "140 S Green Valley Pkwy",
        "City": "Henderson",
        "State": "NV",
        "ZIP": 89012
    },
    {
        "name": "Horizon Marketplace",
        "AttWeb": "https://www.att.com/stores/nevada/henderson/122229",
        "latitude": 35.99904167189485,
        "longitude": -115.10213554282751,
        "GMap": "https://maps.google.com/maps?cid=10453905691176679902",
        "Phone": "+17022690035",
        "Street": "10624 S Eastern Ave",
        "City": "Henderson",
        "State": "NV",
        "ZIP": 89052
    },
    {
        "name": "Lv Flamingo",
        "AttWeb": "https://www.att.com/stores/nevada/las-vegas/201404",
        "latitude": 36.11547233705445,
        "longitude": -115.10366491228581,
        "GMap": "https://maps.google.com/maps?cid=2194975685895020388",
        "Phone": "+17252183686",
        "Street": "3280 E Flamingo Road",
        "City": "Las Vegas",
        "State": "NV",
        "ZIP": 89121
    },
    {
        "name": "Beltway S. Eastern",
        "AttWeb": "https://www.att.com/stores/nevada/las-vegas/679",
        "latitude": 36.019479483743815,
        "longitude": -115.116896626565,
        "GMap": "https://maps.google.com/maps?cid=9909053261763583209",
        "Phone": "+17028970027",
        "Street": "9310 S Eastern Ave",
        "City": "Las Vegas",
        "State": "NV",
        "ZIP": 89123
    },
    {
        "name": "North Las Vegas",
        "AttWeb": "https://www.att.com/stores/nevada/north-las-vegas/118368",
        "latitude": 36.2758215,
        "longitude": -115.1196531,
        "GMap": "https://maps.google.com/maps?cid=3930426231150771383",
        "Phone": "+17026660438",
        "Street": "2225 E Centennial Pkwy",
        "City": "North Las Vegas",
        "State": "NV",
        "ZIP": 89081
    },
    {
        "name": "McCarran",
        "AttWeb": "https://www.att.com/stores/nevada/las-vegas/110116",
        "latitude": 36.08187039086094,
        "longitude": -115.11985580005206,
        "GMap": "https://maps.google.com/maps?cid=961293745974793071",
        "Phone": "+17024568868",
        "Street": "5905 S Eastern",
        "City": "Las Vegas",
        "State": "NV",
        "ZIP": 89119
    },
    {
        "name": "Fiesta Plaza",
        "AttWeb": "https://www.att.com/stores/nevada/north-las-vegas/201699",
        "latitude": 36.1962082,
        "longitude": -115.1202207,
        "GMap": "https://maps.google.com/maps?cid=9030327755693477356",
        "Phone": "+17026055568",
        "Street": "2010 E Lake Mead Blvd",
        "City": "North Las Vegas",
        "State": "NV",
        "ZIP": 89030
    },
    {
        "name": "Cannery",
        "AttWeb": "https://www.att.com/stores/nevada/north-las-vegas/201700",
        "latitude": 36.2403189,
        "longitude": -115.1223517,
        "GMap": "https://maps.google.com/maps?cid=15622621741910244966",
        "Phone": "+17026085992",
        "Street": "1820 E Craig Road",
        "City": "North Las Vegas",
        "State": "NV",
        "ZIP": 89030
    },
    {
        "name": "St. Rose Square",
        "AttWeb": "https://www.att.com/stores/nevada/henderson/178098",
        "latitude": 35.99904129220611,
        "longitude": -115.12452541740296,
        "GMap": "https://maps.google.com/maps?cid=6658365224181249785",
        "Phone": "+17026052717",
        "Street": "3459 St Rose Pkwy",
        "City": "Henderson",
        "State": "NV",
        "ZIP": 89052
    },
    {
        "name": "Boulevard Mall",
        "AttWeb": "https://www.att.com/stores/nevada/las-vegas/117445",
        "latitude": 36.1242734,
        "longitude": -115.1354424,
        "GMap": "https://maps.google.com/maps?cid=15467892056636979872",
        "Phone": "+17028369166",
        "Street": "3596 S Maryland Pkwy",
        "City": "Las Vegas",
        "State": "NV",
        "ZIP": 89169
    },
    {
        "name": "Best on the Boulevard Kiosk",
        "AttWeb": "https://www.att.com/stores/nevada/las-vegas/95178",
        "latitude": 36.11824749991728,
        "longitude": -115.13563079629517,
        "GMap": "https://maps.google.com/maps?cid=11504326841739195519",
        "Phone": "+17024338887",
        "Street": "3890 S. Maryland Parkway",
        "City": "Las Vegas",
        "State": "NV",
        "ZIP": 89119
    },
    {
        "name": "Lv Adama",
        "AttWeb": "https://www.att.com/stores/nevada/las-vegas/201392",
        "latitude": 36.11512568558487,
        "longitude": -115.14841216499917,
        "GMap": "https://maps.google.com/maps?cid=16368581866533112882",
        "Phone": "+17252183710",
        "Street": "710 E Flamingo Road",
        "City": "Las Vegas",
        "State": "NV",
        "ZIP": 89119
    },
    {
        "name": "Fashion Show",
        "AttWeb": "https://www.att.com/stores/nevada/las-vegas/144645",
        "latitude": 36.127337844750414,
        "longitude": -115.17150163650513,
        "GMap": "https://maps.google.com/maps?cid=4143245441342349598",
        "Phone": "+17023870208",
        "Street": "3200 South Las Vegas Blvd",
        "City": "Las Vegas",
        "State": "NV",
        "ZIP": 89109
    },
    {
        "name": "West Craig Road",
        "AttWeb": "https://www.att.com/stores/nevada/north-las-vegas/2020",
        "latitude": 36.2390736,
        "longitude": -115.171643,
        "GMap": "https://maps.google.com/maps?cid=3993152670821629887",
        "Phone": "+17026484606",
        "Street": "2015 W Craig Road",
        "City": "North Las Vegas",
        "State": "NV",
        "ZIP": 89032
    },
    {
        "name": "Town Square",
        "AttWeb": "https://www.att.com/stores/nevada/las-vegas/120541",
        "latitude": 36.0680212,
        "longitude": -115.1751584,
        "GMap": "https://maps.google.com/maps?cid=18232810439838186415",
        "Phone": "+17029604214",
        "Street": "6659 S Las Vegas Blvd",
        "City": "Las Vegas",
        "State": "NV",
        "ZIP": 89119
    },
    {
        "name": "Blue Diamond Crossing",
        "AttWeb": "https://www.att.com/stores/nevada/las-vegas/79787",
        "latitude": 36.0375944,
        "longitude": -115.1989409,
        "GMap": "https://maps.google.com/maps?cid=10362079285777168652",
        "Phone": "+17028976833",
        "Street": "4380 Blue Diamond Road",
        "City": "Las Vegas",
        "State": "NV",
        "ZIP": 89139
    },
    {
        "name": "Spring Mountain Plaza",
        "AttWeb": "https://www.att.com/stores/nevada/las-vegas/144647",
        "latitude": 36.1265527,
        "longitude": -115.2037785,
        "GMap": "https://maps.google.com/maps?cid=10528183212656836415",
        "Phone": "+17022210828",
        "Street": "4588 Spring Mountain Rd",
        "City": "Las Vegas",
        "State": "NV",
        "ZIP": 89102
    },
    {
        "name": "Cardenas",
        "AttWeb": "https://www.att.com/stores/nevada/las-vegas/111849",
        "latitude": 36.1713604,
        "longitude": -115.2053973,
        "GMap": "https://maps.google.com/maps?cid=3013428340338484306",
        "Phone": "+17028224371",
        "Street": "4700 Meadows Lane",
        "City": "Las Vegas",
        "State": "NV",
        "ZIP": 89107
    },
    {
        "name": "North Decatur Boulevard",
        "AttWeb": "https://www.att.com/stores/nevada/las-vegas/68216",
        "latitude": 36.2772398,
        "longitude": -115.2058907,
        "GMap": "https://maps.google.com/maps?cid=8451957701806508415",
        "Phone": "+17025151880",
        "Street": "6436 N. Decatur Blvd",
        "City": "Las Vegas",
        "State": "NV",
        "ZIP": 89131
    },
    {
        "name": "West Sahara",
        "AttWeb": "https://www.att.com/stores/nevada/las-vegas/1445",
        "latitude": 36.145616,
        "longitude": -115.206582,
        "GMap": "https://maps.google.com/maps?cid=15557753070915854710",
        "Phone": "+17022588308",
        "Street": "4750 W Sahara",
        "City": "Las Vegas",
        "State": "NV",
        "ZIP": 89102
    },
    {
        "name": "Arroyo Crossing",
        "AttWeb": "https://www.att.com/stores/nevada/las-vegas/162051",
        "latitude": 36.063451279100015,
        "longitude": -115.24283706507237,
        "GMap": "https://maps.google.com/maps?cid=4306066760145043107",
        "Phone": "+17027801300",
        "Street": "6920 Arroyo Crossing Pkwy",
        "City": "Las Vegas",
        "State": "NV",
        "ZIP": 89113
    },
    {
        "name": "Rainbow Boulevard",
        "AttWeb": "https://www.att.com/stores/nevada/las-vegas/144648",
        "latitude": 36.0465737,
        "longitude": -115.2436126,
        "GMap": "https://maps.google.com/maps?cid=9043784794524105793",
        "Phone": "+17026310828",
        "Street": "7815 S Rainbow Blvd",
        "City": "Las Vegas",
        "State": "NV",
        "ZIP": 89139
    },
    {
        "name": "Rainbow Plaza",
        "AttWeb": "https://www.att.com/stores/nevada/las-vegas/144644",
        "latitude": 36.15954461931969,
        "longitude": -115.2442448919673,
        "GMap": "https://maps.google.com/maps?cid=4585347761958101377",
        "Phone": "+17026852688",
        "Street": "1049 South Rainbow Blvd",
        "City": "Las Vegas",
        "State": "NV",
        "ZIP": 89145
    },
    {
        "name": "Rainbow Springs",
        "AttWeb": "https://www.att.com/stores/nevada/las-vegas/111851",
        "latitude": 36.1252584,
        "longitude": -115.2463339,
        "GMap": "https://maps.google.com/maps?cid=8931117476818144668",
        "Phone": "+17028898282",
        "Street": "7017 Spring Mountain Rd",
        "City": "Las Vegas",
        "State": "NV",
        "ZIP": 89117
    },
    {
        "name": "Summerhill West Lake Mead",
        "AttWeb": "https://www.att.com/stores/nevada/las-vegas/142",
        "latitude": 36.1956200296991,
        "longitude": -115.2581600966185,
        "GMap": "https://maps.google.com/maps?cid=16111100946053385604",
        "Phone": "+17022274000",
        "Street": "7531 West Lake Mead Boulevard",
        "City": "Las Vegas",
        "State": "NV",
        "ZIP": 89128
    },
    {
        "name": "Centennial Gateway",
        "AttWeb": "https://www.att.com/stores/nevada/las-vegas/81557",
        "latitude": 36.2649401,
        "longitude": -115.2585516,
        "GMap": "https://maps.google.com/maps?cid=9594973971668536126",
        "Phone": "+17026450129",
        "Street": "5705 Centennial Center Blvd",
        "City": "Las Vegas",
        "State": "NV",
        "ZIP": 89149
    },
    {
        "name": "South Durango Drive",
        "AttWeb": "https://www.att.com/stores/nevada/las-vegas/595",
        "latitude": 36.0531709,
        "longitude": -115.2796041,
        "GMap": "https://maps.google.com/maps?cid=4048549209775360214",
        "Phone": "+17022700077",
        "Street": "7425 S Durango Drive",
        "City": "Las Vegas",
        "State": "NV",
        "ZIP": 89113
    },
    {
        "name": "Montecito",
        "AttWeb": "https://www.att.com/stores/nevada/las-vegas/114443",
        "latitude": 36.2883624,
        "longitude": -115.2863798,
        "GMap": "https://maps.google.com/maps?cid=3886332313140626556",
        "Phone": "+17029061840",
        "Street": "7010 N Durango Drive",
        "City": "Las Vegas",
        "State": "NV",
        "ZIP": 89149
    },
    {
        "name": "Boca Park",
        "AttWeb": "https://www.att.com/stores/nevada/las-vegas/246",
        "latitude": 36.1613618,
        "longitude": -115.2909374,
        "GMap": "https://maps.google.com/maps?cid=12138263882276180311",
        "Phone": "+17029337781",
        "Street": "920 S Rampart Blvd",
        "City": "Las Vegas",
        "State": "NV",
        "ZIP": 89145
    },
    {
        "name": "Fort Apache",
        "AttWeb": "https://www.att.com/stores/nevada/las-vegas/111850",
        "latitude": 36.0996667,
        "longitude": -115.2996712,
        "GMap": "https://maps.google.com/maps?cid=9719987632200780343",
        "Phone": "+17022203451",
        "Street": "9435 W Tropicana",
        "City": "Las Vegas",
        "State": "NV",
        "ZIP": 89147
    },
    {
        "name": "Summerlin Mall",
        "AttWeb": "https://www.att.com/stores/nevada/las-vegas/115243",
        "latitude": 36.14493402219848,
        "longitude": -115.33456002151274,
        "GMap": "https://maps.google.com/maps?cid=16835281786820998154",
        "Phone": "+17024056248",
        "Street": "11035 Lavender Hill Rd",
        "City": "Las Vegas",
        "State": "NV",
        "ZIP": 89135
    },
    {
        "name": "Elko",
        "AttWeb": "https://www.att.com/stores/nevada/elko/85952",
        "latitude": 40.85118034313596,
        "longitude": -115.74231063050053,
        "GMap": "https://maps.google.com/maps?cid=2401769654423685730",
        "Phone": "+17757387290",
        "Street": "2572 Idaho Street",
        "City": "Elko",
        "State": "NV",
        "ZIP": 89801
    },
    {
        "name": "Pahrump",
        "AttWeb": "https://www.att.com/stores/nevada/pahrump/122232",
        "latitude": 36.21411093348632,
        "longitude": -115.99124775098062,
        "GMap": "https://maps.google.com/maps?cid=1079174161894305442",
        "Phone": "+17755370100",
        "Street": "361 S Frontage Rd",
        "City": "Pahrump",
        "State": "NV",
        "ZIP": 89048
    },
    {
        "name": "The Outlets at Sparks",
        "AttWeb": "https://www.att.com/stores/nevada/sparks/84010",
        "latitude": 39.533319547991994,
        "longitude": -119.7177913679285,
        "GMap": "https://maps.google.com/maps?cid=1091006154895214658",
        "Phone": "+17753586202",
        "Street": "1565 E Lincoln Way",
        "City": "Sparks",
        "State": "NV",
        "ZIP": 89434
    },
    {
        "name": "Sparks Crossing",
        "AttWeb": "https://www.att.com/stores/nevada/sparks/76084",
        "latitude": 39.58308929548275,
        "longitude": -119.73806977272028,
        "GMap": "https://maps.google.com/maps?cid=9027974326389013037",
        "Phone": "+17756262635",
        "Street": "279 Los Altos Pkwy",
        "City": "Sparks",
        "State": "NV",
        "ZIP": 89436
    },
    {
        "name": "Gardnerville",
        "AttWeb": "https://www.att.com/stores/nevada/gardnerville/82043",
        "latitude": 38.9367502,
        "longitude": -119.7410288,
        "GMap": "https://maps.google.com/maps?cid=7085132170549634296",
        "Phone": "+17757377373",
        "Street": "1352 Hwy 395",
        "City": "Gardnerville",
        "State": "NV",
        "ZIP": 89410
    },
    {
        "name": "East William Street",
        "AttWeb": "https://www.att.com/stores/nevada/carson-city/2136",
        "latitude": 39.17401741926546,
        "longitude": -119.74672517266708,
        "GMap": "https://maps.google.com/maps?cid=13519096888567771524",
        "Phone": "+17758849494",
        "Street": "1894 E William St",
        "City": "Carson City",
        "State": "NV",
        "ZIP": 89701
    },
    {
        "name": "South Towne Crossing",
        "AttWeb": "https://www.att.com/stores/nevada/reno/265",
        "latitude": 39.4210591,
        "longitude": -119.7573183,
        "GMap": "https://maps.google.com/maps?cid=15161302308723999368",
        "Phone": "+17758538163",
        "Street": "75 Damonte Ranch Pkwy",
        "City": "Reno",
        "State": "NV",
        "ZIP": 89521
    },
    {
        "name": "Carson City",
        "AttWeb": "https://www.att.com/stores/nevada/carson-city/92731",
        "latitude": 39.10726705036255,
        "longitude": -119.77637441472325,
        "GMap": "https://maps.google.com/maps?cid=7065309460852712919",
        "Phone": "+17753527680",
        "Street": "911 Topsy Lane",
        "City": "Carson City",
        "State": "NV",
        "ZIP": 89705
    },
    {
        "name": "Plumb Lane",
        "AttWeb": "https://www.att.com/stores/nevada/reno/1450",
        "latitude": 39.5055742,
        "longitude": -119.7833788,
        "GMap": "https://maps.google.com/maps?cid=16386988093769614883",
        "Phone": "+17756892727",
        "Street": "1274 E Plumb Ln",
        "City": "Reno",
        "State": "NV",
        "ZIP": 89502
    },
    {
        "name": "Kietzke Lane",
        "AttWeb": "https://www.att.com/stores/nevada/reno/2816",
        "latitude": 39.4783062,
        "longitude": -119.7943698,
        "GMap": "https://maps.google.com/maps?cid=9115722922170812369",
        "Phone": "+17758286061",
        "Street": "4985 Kietzke Ln",
        "City": "Reno",
        "State": "NV",
        "ZIP": 89509
    },
    {
        "name": "Lemmon Drive",
        "AttWeb": "https://www.att.com/stores/nevada/reno/84901",
        "latitude": 39.61297223522614,
        "longitude": -119.85193759202957,
        "GMap": "https://maps.google.com/maps?cid=15417984282686387925",
        "Phone": "+17755535711",
        "Street": "155 Lemmon Dr",
        "City": "Reno",
        "State": "NV",
        "ZIP": 89506
    },
    {
        "name": "McCarren Boulevard",
        "AttWeb": "https://www.att.com/stores/nevada/reno/33230",
        "latitude": 39.5277578,
        "longitude": -119.8623758,
        "GMap": "https://maps.google.com/maps?cid=5961184608690883845",
        "Phone": "+17757478788",
        "Street": "10190 N McCarran Blvd",
        "City": "Reno",
        "State": "NV",
        "ZIP": 89503
    }
]