[
    {
        "name": "North Myrtle Beach",
        "AttWeb": "https://www.att.com/stores/south-carolina/north-myrtle-beach/113163",
        "latitude": 33.831241867365,
        "longitude": -78.67701463404046,
        "GMap": "https://maps.google.com/maps?cid=14292150109023467364",
        "Phone": "+18432494851",
        "Street": "213 Hwy 17 N",
        "City": "North Myrtle Beach",
        "State": "SC",
        "ZIP": 29582
    },
    {
        "name": "Longs",
        "AttWeb": "https://www.att.com/stores/south-carolina/longs/111030",
        "latitude": 33.88557920136489,
        "longitude": -78.68847433111634,
        "GMap": "https://maps.google.com/maps?cid=18130950206953860856",
        "Phone": "+18433652154",
        "Street": "2370 Hwy. 9",
        "City": "Longs",
        "State": "SC",
        "ZIP": 29568
    },
    {
        "name": "Grande Dunes",
        "AttWeb": "https://www.att.com/stores/south-carolina/myrtle-beach/177161",
        "latitude": 33.750987246282406,
        "longitude": -78.81450626410049,
        "GMap": "https://maps.google.com/maps?cid=7668704966026085332",
        "Phone": "+18432131479",
        "Street": "7955 N. King Hwy",
        "City": "Myrtle Beach",
        "State": "SC",
        "ZIP": 29572
    },
    {
        "name": "AT&T Store Myrtle Beach 825-4 Market Place Drive",
        "AttWeb": "https://www.att.com/stores/south-carolina/myrtle-beach/111031",
        "latitude": 33.758839,
        "longitude": -78.8559652,
        "GMap": "https://maps.google.com/maps?cid=13583065886171627434",
        "Phone": "+18433652154",
        "Street": "825-4 Market Place Drive",
        "City": "Myrtle Beach",
        "State": "SC",
        "ZIP": 29579
    },
    {
        "name": "Loris",
        "AttWeb": "https://www.att.com/stores/south-carolina/loris/111025",
        "latitude": 34.054288,
        "longitude": -78.8864953,
        "GMap": "https://maps.google.com/maps?cid=7878429025499684324",
        "Phone": "+18433652154",
        "Street": "4350 Main Street",
        "City": "Loris",
        "State": "SC",
        "ZIP": 29569
    },
    {
        "name": "Coastal Grand Mall",
        "AttWeb": "https://www.att.com/stores/south-carolina/myrtle-beach/113161",
        "latitude": 33.70452704110824,
        "longitude": -78.91850099999999,
        "GMap": "https://maps.google.com/maps?cid=16618989971387369267",
        "Phone": "+18438394787",
        "Street": "1835 Pine Island Rd",
        "City": "Myrtle Beach",
        "State": "SC",
        "ZIP": 29577
    },
    {
        "name": "Coastal Grand Circle",
        "AttWeb": "https://www.att.com/stores/south-carolina/myrtle-beach/115944",
        "latitude": 33.7015369,
        "longitude": -78.9231674,
        "GMap": "https://maps.google.com/maps?cid=14825535375435216694",
        "Phone": "+18434442664",
        "Street": "2000 Coastal Grand Circle",
        "City": "Myrtle Beach",
        "State": "SC",
        "ZIP": 29577
    },
    {
        "name": "Carolina Forest Commons",
        "AttWeb": "https://www.att.com/stores/south-carolina/myrtle-beach/177160",
        "latitude": 33.75792420235709,
        "longitude": -78.96897155712266,
        "GMap": "https://maps.google.com/maps?cid=2337666071703598612",
        "Phone": "+16013927253",
        "Street": "107 Debo Dr",
        "City": "Myrtle Beach",
        "State": "SC",
        "ZIP": 29579
    },
    {
        "name": "Sayebrook Town Center",
        "AttWeb": "https://www.att.com/stores/south-carolina/myrtle-beach/122063",
        "latitude": 33.6518882,
        "longitude": -78.9833026,
        "GMap": "https://maps.google.com/maps?cid=5179384607927761705",
        "Phone": "+18434435505",
        "Street": "181 Brookton Circle",
        "City": "Myrtle Beach",
        "State": "SC",
        "ZIP": 29588
    },
    {
        "name": "AT&T Store Conway 2201 E Hwy 501",
        "AttWeb": "https://www.att.com/stores/south-carolina/conway/111033",
        "latitude": 33.79529,
        "longitude": -78.99923,
        "GMap": "https://maps.google.com/maps?cid=4647780428605651796",
        "Phone": "+18433652154",
        "Street": "2201 E Hwy 501",
        "City": "Conway",
        "State": "SC",
        "ZIP": 29526
    },
    {
        "name": "AT&T Store Myrtle Beach 6009 Hwy. 707",
        "AttWeb": "https://www.att.com/stores/south-carolina/myrtle-beach/111027",
        "latitude": 33.6769072783923,
        "longitude": -79.00423619710206,
        "GMap": "https://maps.google.com/maps?cid=2277031348573527366",
        "Phone": "+18433652154",
        "Street": "6009 Hwy. 707",
        "City": "Myrtle Beach",
        "State": "SC",
        "ZIP": 29588
    },
    {
        "name": "AT&T Store Murrells Inlet 9500 Hwy. 17 Bypass",
        "AttWeb": "https://www.att.com/stores/south-carolina/murrells-inlet/111026",
        "latitude": 33.599589786578626,
        "longitude": -79.02193163252355,
        "GMap": "https://maps.google.com/maps?cid=10104981061741863450",
        "Phone": "+18433652154",
        "Street": "9500 Hwy. 17 Bypass",
        "City": "Murrells Inlet",
        "State": "SC",
        "ZIP": 29576
    },
    {
        "name": "Murrells Inlet",
        "AttWeb": "https://www.att.com/stores/south-carolina/murrells-inlet/164257",
        "latitude": 33.58377692828964,
        "longitude": -79.02896720308894,
        "GMap": "https://maps.google.com/maps?cid=7500293358875608188",
        "Phone": "+18433145426",
        "Street": "11990 US Hwy 17 Bypass S",
        "City": "Murrells Inlet",
        "State": "SC",
        "ZIP": 29576
    },
    {
        "name": "AT&T Store Conway 3480 Hwy. 701 N",
        "AttWeb": "https://www.att.com/stores/south-carolina/conway/111024",
        "latitude": 33.892398,
        "longitude": -79.047381,
        "GMap": "https://maps.google.com/maps?cid=656505893973537026",
        "Phone": "+18433652154",
        "Street": "3480 Hwy. 701 N",
        "City": "Conway",
        "State": "SC",
        "ZIP": 29526
    },
    {
        "name": "Parker Plaza",
        "AttWeb": "https://www.att.com/stores/south-carolina/conway/122059",
        "latitude": 33.859531739351546,
        "longitude": -79.08740905245543,
        "GMap": "https://maps.google.com/maps?cid=5742457175897853011",
        "Phone": "+18435822552",
        "Street": "2676 Church St",
        "City": "Conway",
        "State": "SC",
        "ZIP": 29526
    },
    {
        "name": "Pawleys Island",
        "AttWeb": "https://www.att.com/stores/south-carolina/pawleys-island/164512",
        "latitude": 33.438573148896054,
        "longitude": -79.13185222422237,
        "GMap": "https://maps.google.com/maps?cid=12631858400546334899",
        "Phone": "+18433145332",
        "Street": "10225 Ocean Hwy",
        "City": "Pawleys Island",
        "State": "SC",
        "ZIP": 29585
    },
    {
        "name": "Georgetown",
        "AttWeb": "https://www.att.com/stores/south-carolina/georgetown/82678",
        "latitude": 33.39001781616,
        "longitude": -79.28873335922526,
        "GMap": "https://maps.google.com/maps?cid=3307567426194329253",
        "Phone": "+18435451782",
        "Street": "1140 N Fraser St",
        "City": "Georgetown",
        "State": "SC",
        "ZIP": 29440
    },
    {
        "name": "Pinewood Village",
        "AttWeb": "https://www.att.com/stores/south-carolina/florence/80973",
        "latitude": 34.16653943856619,
        "longitude": -79.77032517790985,
        "GMap": "https://maps.google.com/maps?cid=18191833179438452698",
        "Phone": "+18436670104",
        "Street": "430 Second Loop Rd",
        "City": "Florence",
        "State": "SC",
        "ZIP": 29505
    },
    {
        "name": "Mt Pleasant",
        "AttWeb": "https://www.att.com/stores/south-carolina/mount-pleasant/158368",
        "latitude": 32.8271827,
        "longitude": -79.8370285,
        "GMap": "https://maps.google.com/maps?cid=3372488581235058051",
        "Phone": "+18432167063",
        "Street": "1700 Shoremeade Road",
        "City": "Mount Pleasant",
        "State": "SC",
        "ZIP": 29464
    },
    {
        "name": "The Plaza at Magnolia",
        "AttWeb": "https://www.att.com/stores/south-carolina/florence/80465",
        "latitude": 34.18829331969949,
        "longitude": -79.83733558043184,
        "GMap": "https://maps.google.com/maps?cid=2221295622821824764",
        "Phone": "+18436797000",
        "Street": "3007 West Radio Drive",
        "City": "Florence",
        "State": "SC",
        "ZIP": 29501
    },
    {
        "name": "Live-Mount Pleasant",
        "AttWeb": "https://www.att.com/stores/south-carolina/mount-pleasant/177166",
        "latitude": 32.7927731,
        "longitude": -79.8682638,
        "GMap": "https://maps.google.com/maps?cid=4204453145975556209",
        "Phone": "+18439360475",
        "Street": "736 Coleman Blvd",
        "City": "Mount Pleasant",
        "State": "SC",
        "ZIP": 29464
    },
    {
        "name": "Westedge",
        "AttWeb": "https://www.att.com/stores/south-carolina/charleston/176220",
        "latitude": 32.7866599,
        "longitude": -79.957221,
        "GMap": "https://maps.google.com/maps?cid=11221804780494667658",
        "Phone": "+18436477060",
        "Street": "10 Westedge Street",
        "City": "Charleston",
        "State": "SC",
        "ZIP": 29403
    },
    {
        "name": "AT&T Store Charleston 1405 Folly Rd",
        "AttWeb": "https://www.att.com/stores/south-carolina/charleston/199059",
        "latitude": 32.7150003,
        "longitude": -79.96525439999999,
        "GMap": "https://maps.google.com/maps?cid=12199270187677098866",
        "Phone": "+18439964688",
        "Street": "1405 Folly Rd",
        "City": "Charleston",
        "State": "SC",
        "ZIP": 29412
    },
    {
        "name": "Moncks Corner",
        "AttWeb": "https://www.att.com/stores/south-carolina/moncks-corner/205191",
        "latitude": 33.210902,
        "longitude": -79.982732,
        "GMap": "https://maps.google.com/maps?cid=8248243192632860412",
        "Phone": "+18439904931",
        "Street": "418 Reid Hill Rd",
        "City": "Moncks Corner",
        "State": "SC",
        "ZIP": 29461
    },
    {
        "name": "West Ashley",
        "AttWeb": "https://www.att.com/stores/south-carolina/charleston/81889",
        "latitude": 32.7824631,
        "longitude": -79.9895978,
        "GMap": "https://maps.google.com/maps?cid=7002454805008081676",
        "Phone": "+18435567611",
        "Street": "975 Savannah Highway",
        "City": "Charleston",
        "State": "SC",
        "ZIP": 29407
    },
    {
        "name": "North Charleston",
        "AttWeb": "https://www.att.com/stores/south-carolina/north-charleston/116086",
        "latitude": 32.875051,
        "longitude": -80.0203106,
        "GMap": "https://maps.google.com/maps?cid=8869658582396808712",
        "Phone": "+18437447799",
        "Street": "4940 Center Pointe Dr",
        "City": "North Charleston",
        "State": "SC",
        "ZIP": 29418
    },
    {
        "name": "North Charleston",
        "AttWeb": "https://www.att.com/stores/south-carolina/charleston/81010",
        "latitude": 32.938044202196856,
        "longitude": -80.03909647464752,
        "GMap": "https://maps.google.com/maps?cid=7179668787488957290",
        "Phone": "+18437640350",
        "Street": "7460 Rivers Ave",
        "City": "Charleston",
        "State": "SC",
        "ZIP": 29406
    },
    {
        "name": "Goose Creek",
        "AttWeb": "https://www.att.com/stores/south-carolina/goose-creek/116088",
        "latitude": 33.0305273,
        "longitude": -80.058203,
        "GMap": "https://maps.google.com/maps?cid=9575756746201465248",
        "Phone": "+18435538330",
        "Street": "514 Saint James Ave",
        "City": "Goose Creek",
        "State": "SC",
        "ZIP": 29445
    },
    {
        "name": "Hartsville",
        "AttWeb": "https://www.att.com/stores/south-carolina/hartsville/122062",
        "latitude": 34.357919551206194,
        "longitude": -80.06157338619232,
        "GMap": "https://maps.google.com/maps?cid=11643992964505619291",
        "Phone": "+18438611000",
        "Street": "1209 Retail Row",
        "City": "Hartsville",
        "State": "SC",
        "ZIP": 29550
    },
    {
        "name": "Cane Bay",
        "AttWeb": "https://www.att.com/stores/south-carolina/summerville/177159",
        "latitude": 33.1059109,
        "longitude": -80.127281,
        "GMap": "https://maps.google.com/maps?cid=2006547928579882479",
        "Phone": "+18433761618",
        "Street": "1730 State Rd",
        "City": "Summerville",
        "State": "SC",
        "ZIP": 29486
    },
    {
        "name": "The Corner at Wescott",
        "AttWeb": "https://www.att.com/stores/south-carolina/summerville/122065",
        "latitude": 32.9362938,
        "longitude": -80.1408511,
        "GMap": "https://maps.google.com/maps?cid=17202316733116009357",
        "Phone": "+18433761826",
        "Street": "9500 Dorchester Rd",
        "City": "Summerville",
        "State": "SC",
        "ZIP": 29485
    },
    {
        "name": "Summerville Crossroads",
        "AttWeb": "https://www.att.com/stores/south-carolina/summerville/81890",
        "latitude": 33.03572580938768,
        "longitude": -80.15850874317016,
        "GMap": "https://maps.google.com/maps?cid=2039350474118733669",
        "Phone": "+18438730723",
        "Street": "1218 N. Main Street",
        "City": "Summerville",
        "State": "SC",
        "ZIP": 29483
    },
    {
        "name": "Sumter",
        "AttWeb": "https://www.att.com/stores/south-carolina/sumter/122053",
        "latitude": 33.95243800782869,
        "longitude": -80.37729084491735,
        "GMap": "https://maps.google.com/maps?cid=1977021342657369655",
        "Phone": "+18037205457",
        "Street": "1101 Broad St",
        "City": "Sumter",
        "State": "SC",
        "ZIP": 29150
    },
    {
        "name": "Camden",
        "AttWeb": "https://www.att.com/stores/south-carolina/camden/122055",
        "latitude": 34.2503934,
        "longitude": -80.6429747,
        "GMap": "https://maps.google.com/maps?cid=11575277994292482795",
        "Phone": "+18037130534",
        "Street": "1671 Springdale Dr",
        "City": "Camden",
        "State": "SC",
        "ZIP": 29020
    },
    {
        "name": "Walterboro",
        "AttWeb": "https://www.att.com/stores/south-carolina/walterboro/174384",
        "latitude": 32.93356375088016,
        "longitude": -80.69334737802785,
        "GMap": "https://maps.google.com/maps?cid=10522899204701473588",
        "Phone": "+18433528562",
        "Street": "2052 Bells Hwy",
        "City": "Walterboro",
        "State": "SC",
        "ZIP": 29488
    },
    {
        "name": "Beaufort",
        "AttWeb": "https://www.att.com/stores/south-carolina/beaufort/116763",
        "latitude": 32.438725671487546,
        "longitude": -80.70561803877354,
        "GMap": "https://maps.google.com/?cid=3477998372364270435",
        "Phone": "+18432568277",
        "Street": "35A Robert Smalls Parkway",
        "City": "Beaufort",
        "State": "SC",
        "ZIP": 29906
    },
    {
        "name": "Hilton Head Island",
        "AttWeb": "https://www.att.com/stores/south-carolina/hilton-head-island/114797",
        "latitude": 32.184177189815564,
        "longitude": -80.72034772883603,
        "GMap": "https://maps.google.com/maps?cid=4728824418450627420",
        "Phone": "+18433426444",
        "Street": "34 Shelter Cove Lane",
        "City": "Hilton Head Island",
        "State": "SC",
        "ZIP": 29928
    },
    {
        "name": "Lancaster",
        "AttWeb": "https://www.att.com/stores/south-carolina/lancaster/110975",
        "latitude": 34.734479355775804,
        "longitude": -80.78871624321755,
        "GMap": "https://maps.google.com/maps?cid=12884181094667283628",
        "Phone": "+18884032667",
        "Street": "1091 Hwy 9 Bypass",
        "City": "Lancaster",
        "State": "SC",
        "ZIP": 29720
    },
    {
        "name": "Bluffton",
        "AttWeb": "https://www.att.com/stores/south-carolina/bluffton/47663",
        "latitude": 32.243782000000024,
        "longitude": -80.82791427116393,
        "GMap": "https://maps.google.com/?cid=1051682622504397715",
        "Phone": "+18437798208",
        "Street": "30 Malphrus Road",
        "City": "Bluffton",
        "State": "SC",
        "ZIP": 29910
    },
    {
        "name": "Indian Land",
        "AttWeb": "https://www.att.com/stores/south-carolina/indian-land/110982",
        "latitude": 34.940087,
        "longitude": -80.83727,
        "GMap": "https://maps.google.com/maps?cid=1819157443012389204",
        "Phone": "+18884032667",
        "Street": "7756 Charlotte Highway",
        "City": "Indian Land",
        "State": "SC",
        "ZIP": 29707
    },
    {
        "name": "Charlotte Highway",
        "AttWeb": "https://www.att.com/stores/south-carolina/indian-land/122057",
        "latitude": 35.01001390171057,
        "longitude": -80.85239052772522,
        "GMap": "https://maps.google.com/maps?cid=11559552330065661554",
        "Phone": "+18037537830",
        "Street": "10022 Charlotte Hwy",
        "City": "Indian Land",
        "State": "SC",
        "ZIP": 29707
    },
    {
        "name": "Sandhills",
        "AttWeb": "https://www.att.com/stores/south-carolina/columbia/81888",
        "latitude": 34.13291607795503,
        "longitude": -80.87767800057696,
        "GMap": "https://maps.google.com/maps?cid=17576426700325285183",
        "Phone": "+18034198899",
        "Street": "155 Forum Drive",
        "City": "Columbia",
        "State": "SC",
        "ZIP": 29229
    },
    {
        "name": "Orangeburg",
        "AttWeb": "https://www.att.com/stores/south-carolina/orangeburg/110948",
        "latitude": 33.520873715161024,
        "longitude": -80.88132800917526,
        "GMap": "https://maps.google.com/maps?cid=15560014253090665711",
        "Phone": "+18035337549",
        "Street": "2380 Chestnut Street",
        "City": "Orangeburg",
        "State": "SC",
        "ZIP": 29115
    },
    {
        "name": "Shops at East Forest",
        "AttWeb": "https://www.att.com/stores/south-carolina/columbia/122078",
        "latitude": 34.02139850756994,
        "longitude": -80.9484189748764,
        "GMap": "https://maps.google.com/maps?cid=2906592182802142883",
        "Phone": "+18036996668",
        "Street": "5530 Forest Dr",
        "City": "Columbia",
        "State": "SC",
        "ZIP": 29206
    },
    {
        "name": "Blythewood",
        "AttWeb": "https://www.att.com/stores/south-carolina/columbia/174382",
        "latitude": 34.1396849,
        "longitude": -80.95050909999999,
        "GMap": "https://maps.google.com/maps?cid=17720206400342415723",
        "Phone": "+18038511301",
        "Street": "474 Killian Rd",
        "City": "Columbia",
        "State": "SC",
        "ZIP": 29203
    },
    {
        "name": "Tillman's Plaza",
        "AttWeb": "https://www.att.com/stores/south-carolina/columbia/122077",
        "latitude": 34.0686119,
        "longitude": -80.9523451,
        "GMap": "https://maps.google.com/maps?cid=1081443126195425956",
        "Phone": "+18038287875",
        "Street": "7372-A Two Notch Rd",
        "City": "Columbia",
        "State": "SC",
        "ZIP": 29223
    },
    {
        "name": "Rock Hill",
        "AttWeb": "https://www.att.com/stores/south-carolina/rock-hill/113162",
        "latitude": 34.941267011191115,
        "longitude": -80.9605213254963,
        "GMap": "https://maps.google.com/maps?cid=3272057126995309756",
        "Phone": "+18033299065",
        "Street": "2434 Dave Lyle Blvd",
        "City": "Rock Hill",
        "State": "SC",
        "ZIP": 29730
    },
    {
        "name": "Cross Hill",
        "AttWeb": "https://www.att.com/stores/south-carolina/columbia/81870",
        "latitude": 33.991834115924114,
        "longitude": -80.9750989373423,
        "GMap": "https://maps.google.com/maps?cid=3242727575745022036",
        "Phone": "+18037901776",
        "Street": "702 Cross Hill Rd",
        "City": "Columbia",
        "State": "SC",
        "ZIP": 29205
    },
    {
        "name": "Live Bluffton",
        "AttWeb": "https://www.att.com/stores/south-carolina/bluffton/212465",
        "latitude": 32.24246195874479,
        "longitude": -80.97944186497303,
        "GMap": "https://maps.google.com/maps?cid=9803984759563540706",
        "Phone": "+18439904048",
        "Street": "2600 May River Crossing",
        "City": "Bluffton",
        "State": "SC",
        "ZIP": 29910
    },
    {
        "name": "Tega Cay",
        "AttWeb": "https://www.att.com/stores/south-carolina/tega-cay/110973",
        "latitude": 35.04811021066856,
        "longitude": -80.99362542906546,
        "GMap": "https://maps.google.com/maps?cid=13671444622568531047",
        "Phone": "+18884032667",
        "Street": "1149 Stonecrest Blvd",
        "City": "Tega Cay",
        "State": "SC",
        "ZIP": 29708
    },
    {
        "name": "Cherry Road",
        "AttWeb": "https://www.att.com/stores/south-carolina/rock-hill/110979",
        "latitude": 34.959369138833594,
        "longitude": -81.00788709964654,
        "GMap": "https://maps.google.com/maps?cid=6114137493676044403",
        "Phone": "+18884032667",
        "Street": "1739 Cherry Road",
        "City": "Rock Hill",
        "State": "SC",
        "ZIP": 29732
    },
    {
        "name": "Gervais Street",
        "AttWeb": "https://www.att.com/stores/south-carolina/columbia/122070",
        "latitude": 33.999727727957634,
        "longitude": -81.03935055815327,
        "GMap": "https://maps.google.com/maps?cid=10486346281906928008",
        "Phone": "+18034624825",
        "Street": "815 Gervais St",
        "City": "Columbia",
        "State": "SC",
        "ZIP": 29201
    },
    {
        "name": "West Columbia",
        "AttWeb": "https://www.att.com/stores/south-carolina/west-columbia/122056",
        "latitude": 33.98323056151108,
        "longitude": -81.09871789813042,
        "GMap": "https://maps.google.com/maps?cid=14693020630453761623",
        "Phone": "+18039390427",
        "Street": "2400-A Augusta Rd",
        "City": "West Columbia",
        "State": "SC",
        "ZIP": 29169
    },
    {
        "name": "Harbison Boulevard",
        "AttWeb": "https://www.att.com/stores/south-carolina/columbia/81484",
        "latitude": 34.07212843617741,
        "longitude": -81.161006980465,
        "GMap": "https://maps.google.com/maps?cid=10343227899914396333",
        "Phone": "+18034070695",
        "Street": "239 Harbison Blvd",
        "City": "Columbia",
        "State": "SC",
        "ZIP": 29212
    },
    {
        "name": "Chester",
        "AttWeb": "https://www.att.com/stores/south-carolina/chester/207755",
        "latitude": 34.70113583223527,
        "longitude": -81.19211896590156,
        "GMap": "https://maps.google.com/maps?cid=4915655583373398701",
        "Phone": "+18033774684",
        "Street": "1691 J A Cochran Bypass",
        "City": "Chester",
        "State": "SC",
        "ZIP": 29706
    },
    {
        "name": "York",
        "AttWeb": "https://www.att.com/stores/south-carolina/york/173885",
        "latitude": 34.98444833,
        "longitude": -81.21569833,
        "GMap": "https://maps.google.com/maps?cid=16153818991870148263",
        "Phone": "+18037929188",
        "Street": "924 E. Liberty Street",
        "City": "York",
        "State": "SC",
        "ZIP": 29745
    },
    {
        "name": "Irmo",
        "AttWeb": "https://www.att.com/stores/south-carolina/irmo/122079",
        "latitude": 34.1248547261717,
        "longitude": -81.2217065691948,
        "GMap": "https://maps.google.com/maps?cid=8257071253567226407",
        "Phone": "+18038320952",
        "Street": "1131 Dutch Fork Rd",
        "City": "Irmo",
        "State": "SC",
        "ZIP": 29063
    },
    {
        "name": "Lexington",
        "AttWeb": "https://www.att.com/stores/south-carolina/lexington/81480",
        "latitude": 33.99701036297648,
        "longitude": -81.22256468330801,
        "GMap": "https://maps.google.com/maps?cid=4072140950950704257",
        "Phone": "+18033599103",
        "Street": "5540 Sunset Blvd",
        "City": "Lexington",
        "State": "SC",
        "ZIP": 29072
    },
    {
        "name": "South Lake Drive",
        "AttWeb": "https://www.att.com/stores/south-carolina/lexington/122080",
        "latitude": 33.9136930060085,
        "longitude": -81.22728399933749,
        "GMap": "https://maps.google.com/maps?cid=7571080900284278665",
        "Phone": "+18034907160",
        "Street": "1766 South Lake Dr",
        "City": "Lexington",
        "State": "SC",
        "ZIP": 29073
    },
    {
        "name": "Barnwell",
        "AttWeb": "https://www.att.com/stores/south-carolina/barnwell/201689",
        "latitude": 33.238492233984715,
        "longitude": -81.39074362306496,
        "GMap": "https://maps.google.com/maps?cid=7609082728658102748",
        "Phone": "+18034705048",
        "Street": "11347 Dunbarton Boulevard",
        "City": "Barnwell",
        "State": "SC",
        "ZIP": 29812
    },
    {
        "name": "Newberry",
        "AttWeb": "https://www.att.com/stores/south-carolina/newberry/122072",
        "latitude": 34.28299056391825,
        "longitude": -81.59176021814352,
        "GMap": "https://maps.google.com/maps?cid=15511481941934890050",
        "Phone": "+18035973146",
        "Street": "109 Heritage Dr",
        "City": "Newberry",
        "State": "SC",
        "ZIP": 29108
    },
    {
        "name": "Gaffney",
        "AttWeb": "https://www.att.com/stores/south-carolina/gaffney/122060",
        "latitude": 35.08643721956711,
        "longitude": -81.66090868414813,
        "GMap": "https://maps.google.com/maps?cid=14643501431251556172",
        "Phone": "+18646491515",
        "Street": "1407 W Floyd Baker Blvd",
        "City": "Gaffney",
        "State": "SC",
        "ZIP": 29341
    },
    {
        "name": "Aiken",
        "AttWeb": "https://www.att.com/stores/south-carolina/aiken/176227",
        "latitude": 33.5688566,
        "longitude": -81.6987195,
        "GMap": "https://maps.google.com/maps?cid=14407299774376682259",
        "Phone": "+18032620402",
        "Street": "608 Rutland Drive",
        "City": "Aiken",
        "State": "SC",
        "ZIP": 29801
    },
    {
        "name": "Aiken",
        "AttWeb": "https://www.att.com/stores/south-carolina/aiken/199092",
        "latitude": 33.51597751746001,
        "longitude": -81.7160214447573,
        "GMap": "https://maps.google.com/maps?cid=4054773435596528536",
        "Phone": "+14707297269",
        "Street": "2141 Whiskey Rd",
        "City": "Aiken",
        "State": "SC",
        "ZIP": 29803
    },
    {
        "name": "Spartanburg East",
        "AttWeb": "https://www.att.com/stores/south-carolina/spartanburg/80284",
        "latitude": 34.9668286,
        "longitude": -81.8933023,
        "GMap": "https://maps.google.com/maps?cid=12883989113793519600",
        "Phone": "+18645822889",
        "Street": "1855 E Main St",
        "City": "Spartanburg",
        "State": "SC",
        "ZIP": 29307
    },
    {
        "name": "Laurens",
        "AttWeb": "https://www.att.com/stores/south-carolina/laurens/122071",
        "latitude": 34.49258190321452,
        "longitude": -81.98268681764603,
        "GMap": "https://maps.google.com/maps?cid=10535178213213810398",
        "Phone": "+18647153870",
        "Street": "908 E Main St",
        "City": "Laurens",
        "State": "SC",
        "ZIP": 29360
    },
    {
        "name": "Boiling Springs",
        "AttWeb": "https://www.att.com/stores/south-carolina/boiling-springs/122066",
        "latitude": 35.049365715003134,
        "longitude": -81.98545217514044,
        "GMap": "https://maps.google.com/maps?cid=18076140141429419332",
        "Phone": "+18645990344",
        "Street": "3906 Hwy 9",
        "City": "Boiling Springs",
        "State": "SC",
        "ZIP": 29316
    },
    {
        "name": "Dorman Village",
        "AttWeb": "https://www.att.com/stores/south-carolina/spartanburg/75330",
        "latitude": 34.932978406967656,
        "longitude": -81.98906398682243,
        "GMap": "https://maps.google.com/maps?cid=14542547611325502263",
        "Phone": "+18645761800",
        "Street": "127 E Blackstock Rd",
        "City": "Spartanburg",
        "State": "SC",
        "ZIP": 29301
    },
    {
        "name": "Lyman",
        "AttWeb": "https://www.att.com/stores/south-carolina/lyman/176219",
        "latitude": 34.95381949594089,
        "longitude": -82.11377846015358,
        "GMap": "https://maps.google.com/maps?cid=13251879469121119561",
        "Phone": "+18643362694",
        "Street": "364 Spartanburg Highway",
        "City": "Lyman",
        "State": "SC",
        "ZIP": 29365
    },
    {
        "name": "Greenwood",
        "AttWeb": "https://www.att.com/stores/south-carolina/greenwood/199135",
        "latitude": 34.20673116179253,
        "longitude": -82.18765710302972,
        "GMap": "https://maps.google.com/maps?cid=4488295530555232569",
        "Phone": "+18649004993",
        "Street": "487 By-Pass 72 Northwest",
        "City": "Greenwood",
        "State": "SC",
        "ZIP": 29649
    },
    {
        "name": "Simpsonville",
        "AttWeb": "https://www.att.com/stores/south-carolina/simpsonville/122068",
        "latitude": 34.70728753859634,
        "longitude": -82.2568566352266,
        "GMap": "https://maps.google.com/maps?cid=7331260535113666435",
        "Phone": "+18649625581",
        "Street": "679 Fairview Rd",
        "City": "Simpsonville",
        "State": "SC",
        "ZIP": 29680
    },
    {
        "name": "Taylors",
        "AttWeb": "https://www.att.com/stores/south-carolina/taylors/122067",
        "latitude": 34.9351070857115,
        "longitude": -82.2770243883133,
        "GMap": "https://maps.google.com/maps?cid=14709661434630721472",
        "Phone": "+18646554020",
        "Street": "6040 Wade Hampton Blvd",
        "City": "Taylors",
        "State": "SC",
        "ZIP": 29687
    },
    {
        "name": "Woodruff",
        "AttWeb": "https://www.att.com/stores/south-carolina/greenville/80968",
        "latitude": 34.8300832,
        "longitude": -82.3039902,
        "GMap": "https://maps.google.com/maps?cid=17586255233696953047",
        "Phone": "+18642889811",
        "Street": "1121 Woodruff Rd",
        "City": "Greenville",
        "State": "SC",
        "ZIP": 29607
    },
    {
        "name": "Regency Square",
        "AttWeb": "https://www.att.com/stores/south-carolina/greenville/122061",
        "latitude": 34.8434457,
        "longitude": -82.3427132,
        "GMap": "https://maps.google.com/maps?cid=6380052579159060606",
        "Phone": "+18643495660",
        "Street": "477 Haywood Rd",
        "City": "Greenville",
        "State": "SC",
        "ZIP": 29607
    },
    {
        "name": "Cherrydale Point",
        "AttWeb": "https://www.att.com/stores/south-carolina/greenville/199090",
        "latitude": 34.8890512,
        "longitude": -82.4000811,
        "GMap": "https://maps.google.com/maps?cid=2712072399309408757",
        "Phone": "+18649005001",
        "Street": "3209 N Pleasantburg Dr",
        "City": "Greenville",
        "State": "SC",
        "ZIP": 29609
    },
    {
        "name": "Powdersville",
        "AttWeb": "https://www.att.com/stores/south-carolina/greenville/176224",
        "latitude": 34.79007259999999,
        "longitude": -82.48986579999999,
        "GMap": "https://www.google.com/maps/search/?api=1&query=3637",
        "Phone": "+18644788905",
        "Street": "3637 Highway 153",
        "City": "Greenville",
        "State": "SC",
        "ZIP": 29611
    },
    {
        "name": "Easley",
        "AttWeb": "https://www.att.com/stores/south-carolina/easley/199115",
        "latitude": 34.82708611073495,
        "longitude": -82.54788716105458,
        "GMap": "https://maps.google.com/maps?cid=9465215819158010237",
        "Phone": "+18649004997",
        "Street": "125 Rolling Hills Circle",
        "City": "Easley",
        "State": "SC",
        "ZIP": 29640
    },
    {
        "name": "Anderson",
        "AttWeb": "https://www.att.com/stores/south-carolina/anderson/80285",
        "latitude": 34.55094539589994,
        "longitude": -82.67572000622744,
        "GMap": "https://maps.google.com/maps?cid=2300340245018022986",
        "Phone": "+18642263933",
        "Street": "3518 Clemson Blvd",
        "City": "Anderson",
        "State": "SC",
        "ZIP": 29621
    },
    {
        "name": "Pickens",
        "AttWeb": "https://www.att.com/stores/south-carolina/pickens/176225",
        "latitude": 34.873367,
        "longitude": -82.6938103,
        "GMap": "https://maps.google.com/maps?cid=15627776052899663029",
        "Phone": "+18648989440",
        "Street": "2710 Gentry Memorial Hwy",
        "City": "Pickens",
        "State": "SC",
        "ZIP": 29671
    },
    {
        "name": "Clemson",
        "AttWeb": "https://www.att.com/stores/south-carolina/clemson/122058",
        "latitude": 34.69180133463341,
        "longitude": -82.83649832010275,
        "GMap": "https://maps.google.com/maps?cid=918016666895873274",
        "Phone": "+18646502557",
        "Street": "1067 Tiger Blvd",
        "City": "Clemson",
        "State": "SC",
        "ZIP": 29631
    },
    {
        "name": "Seneca",
        "AttWeb": "https://www.att.com/stores/south-carolina/seneca/122064",
        "latitude": 34.6935877019839,
        "longitude": -82.9774926602841,
        "GMap": "https://maps.google.com/maps?cid=15587392867783335567",
        "Phone": "+18648824511",
        "Street": "1026 Bypass 123",
        "City": "Seneca",
        "State": "SC",
        "ZIP": 29678
    }
]