[
    {
        "name": "Pullman",
        "AttWeb": "https://www.att.com/stores/washington/pullman/175896",
        "latitude": 46.714792,
        "longitude": -117.1752559,
        "GMap": "https://maps.google.com/maps?cid=5351507195363095123",
        "Phone": "+15092926829",
        "Street": "650 SE Bishop Blvd",
        "City": "Pullman",
        "State": "WA",
        "ZIP": 99163
    },
    {
        "name": "Market Pointe II",
        "AttWeb": "https://www.att.com/stores/washington/spokane/2079",
        "latitude": 47.6723138,
        "longitude": -117.1988344,
        "GMap": "https://maps.google.com/maps?cid=8074045884378563266",
        "Phone": "+15099210132",
        "Street": "15319 E Indiana Ave",
        "City": "Spokane",
        "State": "WA",
        "ZIP": 99216
    },
    {
        "name": "Spokane Valley Mall",
        "AttWeb": "https://www.att.com/stores/washington/spokane/111650",
        "latitude": 47.67346758190627,
        "longitude": -117.20677132914852,
        "GMap": "https://maps.google.com/maps?cid=13864416517327792530",
        "Phone": "+15099244483",
        "Street": "14700 E Indiana",
        "City": "Spokane",
        "State": "WA",
        "ZIP": 99216
    },
    {
        "name": "South Regal",
        "AttWeb": "https://www.att.com/stores/washington/spokane/120160",
        "latitude": 47.613759609462385,
        "longitude": -117.36893355846405,
        "GMap": "https://maps.google.com/maps?cid=16856598364780594590",
        "Phone": "+15094483478",
        "Street": "4338 S Regal St",
        "City": "Spokane",
        "State": "WA",
        "ZIP": 99223
    },
    {
        "name": "North Division Street",
        "AttWeb": "https://www.att.com/stores/washington/spokane/117058",
        "latitude": 47.76826996533245,
        "longitude": -117.40420586585697,
        "GMap": "https://maps.google.com/maps?cid=1203132887525760878",
        "Phone": "+15092413172",
        "Street": "12208 N. Division",
        "City": "Spokane",
        "State": "WA",
        "ZIP": 99218
    },
    {
        "name": "Northtown Mall",
        "AttWeb": "https://www.att.com/stores/washington/spokane/814",
        "latitude": 47.702645134569764,
        "longitude": -117.40876965826186,
        "GMap": "https://maps.google.com/maps?cid=7355624418618882924",
        "Phone": "+15094874335",
        "Street": "4750 N Division",
        "City": "Spokane",
        "State": "WA",
        "ZIP": 99207
    },
    {
        "name": "World Market",
        "AttWeb": "https://www.att.com/stores/washington/spokane/198438",
        "latitude": 47.713781387019104,
        "longitude": -117.4119279518469,
        "GMap": "https://maps.google.com/maps?cid=11897134098182866824",
        "Phone": "+15099604043",
        "Street": "North 6117 Division Street",
        "City": "Spokane",
        "State": "WA",
        "ZIP": 99208
    },
    {
        "name": "Riverpark",
        "AttWeb": "https://www.att.com/stores/washington/spokane/111651",
        "latitude": 47.659580211665386,
        "longitude": -117.42384867511765,
        "GMap": "https://maps.google.com/maps?cid=615442537070549271",
        "Phone": "+15096240313",
        "Street": "808 W Main Ave",
        "City": "Spokane",
        "State": "WA",
        "ZIP": 99201
    },
    {
        "name": "Airway Heights",
        "AttWeb": "https://www.att.com/stores/washington/airway-heights/119602",
        "latitude": 47.6435701,
        "longitude": -117.5543217,
        "GMap": "https://maps.google.com/maps?cid=4589614563293578441",
        "Phone": "+15098389616",
        "Street": "10258 Sunset Highway",
        "City": "Airway Heights",
        "State": "WA",
        "ZIP": 99224
    },
    {
        "name": "Cheney",
        "AttWeb": "https://www.att.com/stores/washington/cheney/111655",
        "latitude": 47.5069236,
        "longitude": -117.5669447,
        "GMap": "https://maps.google.com/maps?cid=13996645927838411703",
        "Phone": "+15095595057",
        "Street": "2820 1st St",
        "City": "Cheney",
        "State": "WA",
        "ZIP": 99004
    },
    {
        "name": "Colville",
        "AttWeb": "https://www.att.com/stores/washington/colville/122214",
        "latitude": 48.55656416452463,
        "longitude": -117.92229942977428,
        "GMap": "https://maps.google.com/maps?cid=7905468089282359827",
        "Phone": "+15096843424",
        "Street": "1384 N US-395",
        "City": "Colville",
        "State": "WA",
        "ZIP": 99114
    },
    {
        "name": "Walla Walla",
        "AttWeb": "https://www.att.com/stores/washington/walla-walla/120178",
        "latitude": 46.056356613592406,
        "longitude": -118.34722369909286,
        "GMap": "https://maps.google.com/maps?cid=14242770600122132598",
        "Phone": "+15095251916",
        "Street": "640 S 9th Ave",
        "City": "Walla Walla",
        "State": "WA",
        "ZIP": 99362
    },
    {
        "name": "Kennewick",
        "AttWeb": "https://www.att.com/stores/washington/kennewick/120158",
        "latitude": 46.1851237,
        "longitude": -119.1754166,
        "GMap": "https://maps.google.com/maps?cid=3668181565104026411",
        "Phone": "+15095820160",
        "Street": "4008 W 27th Ave",
        "City": "Kennewick",
        "State": "WA",
        "ZIP": 99337
    },
    {
        "name": "Pasco",
        "AttWeb": "https://www.att.com/stores/washington/pasco/120172",
        "latitude": 46.27583636749146,
        "longitude": -119.18503449128366,
        "GMap": "https://maps.google.com/maps?cid=9545573273309423630",
        "Phone": "+15095458265",
        "Street": "5325 N Rd 68",
        "City": "Pasco",
        "State": "WA",
        "ZIP": 99301
    },
    {
        "name": "Tri-Cities",
        "AttWeb": "https://www.att.com/stores/washington/kennewick/137",
        "latitude": 46.221589137093,
        "longitude": -119.22434236135962,
        "GMap": "https://maps.google.com/maps?cid=9652702411317768776",
        "Phone": "+15093749701",
        "Street": "1103 Columbia Center Boulevard",
        "City": "Kennewick",
        "State": "WA",
        "ZIP": 99336
    },
    {
        "name": "Winco Plaza",
        "AttWeb": "https://www.att.com/stores/washington/richland/198474",
        "latitude": 46.26355241729735,
        "longitude": -119.26451061226845,
        "GMap": "https://maps.google.com/maps?cid=7638375285247070235",
        "Phone": "+15094924851",
        "Street": "107 Columbia Point Dr",
        "City": "Richland",
        "State": "WA",
        "ZIP": 99352
    },
    {
        "name": "Moses Lake",
        "AttWeb": "https://www.att.com/stores/washington/moses-lake/1768",
        "latitude": 47.128981,
        "longitude": -119.268386,
        "GMap": "https://maps.google.com/maps?cid=11754944792007190353",
        "Phone": "+15097645294",
        "Street": "601 S Pioneer Way",
        "City": "Moses Lake",
        "State": "WA",
        "ZIP": 98837
    },
    {
        "name": "North Stratford Road",
        "AttWeb": "https://www.att.com/stores/washington/moses-lake/120198",
        "latitude": 47.14132357067564,
        "longitude": -119.2769792675972,
        "GMap": "https://maps.google.com/maps?cid=3052190183622733414",
        "Phone": "+15097652238",
        "Street": "933 N Stratford Rd",
        "City": "Moses Lake",
        "State": "WA",
        "ZIP": 98837
    },
    {
        "name": "Richland",
        "AttWeb": "https://www.att.com/stores/washington/richland/120138",
        "latitude": 46.2587930248148,
        "longitude": -119.31065475768948,
        "GMap": "https://maps.google.com/maps?cid=2740290488059767529",
        "Phone": "+15096273322",
        "Street": "2669 Queensgate Drive",
        "City": "Richland",
        "State": "WA",
        "ZIP": 99352
    },
    {
        "name": "Omak",
        "AttWeb": "https://www.att.com/stores/washington/omak/120128",
        "latitude": 48.413637675369614,
        "longitude": -119.52882662415504,
        "GMap": "https://maps.google.com/maps?cid=17270165621463663748",
        "Phone": "+15098261835",
        "Street": "201 N Main St",
        "City": "Omak",
        "State": "WA",
        "ZIP": 98841
    },
    {
        "name": "Sunnyside",
        "AttWeb": "https://www.att.com/stores/washington/sunnyside/120140",
        "latitude": 46.3174057,
        "longitude": -119.9834213,
        "GMap": "https://maps.google.com/maps?cid=9413096591289939691",
        "Phone": "+15098360084",
        "Street": "2810 E Lincoln Ave",
        "City": "Sunnyside",
        "State": "WA",
        "ZIP": 98944
    },
    {
        "name": "Wenatchee",
        "AttWeb": "https://www.att.com/stores/washington/wenatchee/80544",
        "latitude": 47.44058973451612,
        "longitude": -120.32591269056223,
        "GMap": "https://maps.google.com/maps?cid=1329419838013254791",
        "Phone": "+15096638137",
        "Street": "1304 N Miller St",
        "City": "Wenatchee",
        "State": "WA",
        "ZIP": 98801
    },
    {
        "name": "Yakima",
        "AttWeb": "https://www.att.com/stores/washington/yakima/234",
        "latitude": 46.567534588640875,
        "longitude": -120.48356030174978,
        "GMap": "https://maps.google.com/maps?cid=7469287311299579231",
        "Phone": "+15094533445",
        "Street": "2401 South 1st Street",
        "City": "Yakima",
        "State": "WA",
        "ZIP": 98903
    },
    {
        "name": "Yakima Avenue",
        "AttWeb": "https://www.att.com/stores/washington/yakima/120192",
        "latitude": 46.598998709270774,
        "longitude": -120.52202180789209,
        "GMap": "https://maps.google.com/maps?cid=12935611835108628083",
        "Phone": "+15094690210",
        "Street": "901 W Yakima Ave",
        "City": "Yakima",
        "State": "WA",
        "ZIP": 98902
    },
    {
        "name": "Rainier Square",
        "AttWeb": "https://www.att.com/stores/washington/yakima/123165",
        "latitude": 46.5849937,
        "longitude": -120.5425804,
        "GMap": "https://maps.google.com/maps?cid=139882466586578141",
        "Phone": "+15092892128",
        "Street": "2412 W Nob Hill Blvd",
        "City": "Yakima",
        "State": "WA",
        "ZIP": 98902
    },
    {
        "name": "Ellensburg",
        "AttWeb": "https://www.att.com/stores/washington/ellensburg/120180",
        "latitude": 46.99888595616374,
        "longitude": -120.5484281556437,
        "GMap": "https://maps.google.com/maps?cid=10452108484578686146",
        "Phone": "+15092939233",
        "Street": "702 N Main St",
        "City": "Ellensburg",
        "State": "WA",
        "ZIP": 98926
    },
    {
        "name": "The Orchards",
        "AttWeb": "https://www.att.com/stores/washington/yakima/122228",
        "latitude": 46.596117,
        "longitude": -120.6047931,
        "GMap": "https://maps.google.com/maps?cid=4141432024182839927",
        "Phone": "+15094696111",
        "Street": "110 S 72nd Ave",
        "City": "Yakima",
        "State": "WA",
        "ZIP": 98908
    },
    {
        "name": "Monroe",
        "AttWeb": "https://www.att.com/stores/washington/monroe/122207",
        "latitude": 47.860562,
        "longitude": -121.973683,
        "GMap": "https://maps.google.com/maps?cid=11797549598421331395",
        "Phone": "+13607946280",
        "Street": "19191 State Route 2",
        "City": "Monroe",
        "State": "WA",
        "ZIP": 98272
    },
    {
        "name": "AT&T Store Issaquah 1567 Highlands Dr NE",
        "AttWeb": "https://www.att.com/stores/washington/issaquah/204682",
        "latitude": 47.543000610758,
        "longitude": -122.01927534966191,
        "GMap": "https://maps.google.com/maps?cid=7556192027323891543",
        "Phone": "+14256777761",
        "Street": "1567 Highlands Dr NE",
        "City": "Issaquah",
        "State": "WA",
        "ZIP": 98029
    },
    {
        "name": "Issaquah",
        "AttWeb": "https://www.att.com/stores/washington/issaquah/1558",
        "latitude": 47.547416395019226,
        "longitude": -122.04021850836523,
        "GMap": "https://maps.google.com/maps?cid=11245009928245793528",
        "Phone": "+14253920114",
        "Street": "6150 E Lake Sammamish Parkway SE",
        "City": "Issaquah",
        "State": "WA",
        "ZIP": 98029
    },
    {
        "name": "Lake Stevens",
        "AttWeb": "https://www.att.com/stores/washington/lake-stevens/120188",
        "latitude": 47.99913508664527,
        "longitude": -122.1088340878486,
        "GMap": "https://maps.google.com/maps?cid=16669811215974307453",
        "Phone": "+14253347500",
        "Street": "8933 Market Place NE",
        "City": "Lake Stevens",
        "State": "WA",
        "ZIP": 98258
    },
    {
        "name": "Covington",
        "AttWeb": "https://www.att.com/stores/washington/covington/95134",
        "latitude": 47.3587484591812,
        "longitude": -122.11788492881874,
        "GMap": "https://maps.google.com/maps?cid=18208298517537007545",
        "Phone": "+12536393301",
        "Street": "27112 167th Place S.E",
        "City": "Covington",
        "State": "WA",
        "ZIP": 98042
    },
    {
        "name": "Redmond",
        "AttWeb": "https://www.att.com/stores/washington/redmond/674",
        "latitude": 47.67133979101516,
        "longitude": -122.11913214710785,
        "GMap": "https://maps.google.com/maps?cid=9084307068896789620",
        "Phone": "+14258815983",
        "Street": "7525 166th Ave NE",
        "City": "Redmond",
        "State": "WA",
        "ZIP": 98052
    },
    {
        "name": "Northeast Bellevue",
        "AttWeb": "https://www.att.com/stores/washington/bellevue/122212",
        "latitude": 47.6308951,
        "longitude": -122.1331423,
        "GMap": "https://maps.google.com/maps?cid=9707451642008502952",
        "Phone": "+14255621011",
        "Street": "15577 NE 24th St",
        "City": "Bellevue",
        "State": "WA",
        "ZIP": 98007
    },
    {
        "name": "Bonney Lake",
        "AttWeb": "https://www.att.com/stores/washington/bonney-lake/122210",
        "latitude": 47.168682798761296,
        "longitude": -122.15247631072998,
        "GMap": "https://maps.google.com/maps?cid=6824951782530981860",
        "Phone": "+12538626710",
        "Street": "20800 State Route 410 E",
        "City": "Bonney Lake",
        "State": "WA",
        "ZIP": 98391
    },
    {
        "name": "Woodinville",
        "AttWeb": "https://www.att.com/stores/washington/woodinville/201386",
        "latitude": 47.7575459,
        "longitude": -122.1570972,
        "GMap": "https://maps.google.com/maps?cid=3048003761612435199",
        "Phone": "+14258180069",
        "Street": "18021 Garden Way NE",
        "City": "Woodinville",
        "State": "WA",
        "ZIP": 98072
    },
    {
        "name": "Factoria",
        "AttWeb": "https://www.att.com/stores/washington/bellevue/122841",
        "latitude": 47.5744214,
        "longitude": -122.1687412,
        "GMap": "https://maps.google.com/maps?cid=4355818032025482329",
        "Phone": "+14252090010",
        "Street": "4000 Factoria Blvd",
        "City": "Bellevue",
        "State": "WA",
        "ZIP": 98006
    },
    {
        "name": "Marysville Town Center Mall",
        "AttWeb": "https://www.att.com/stores/washington/marysville/121411",
        "latitude": 48.0515639,
        "longitude": -122.1775246,
        "GMap": "https://maps.google.com/maps?cid=8187376022195297849",
        "Phone": "+13604744883",
        "Street": "319 State Ave",
        "City": "Marysville",
        "State": "WA",
        "ZIP": 98270
    },
    {
        "name": "The Village at Totem Lake",
        "AttWeb": "https://www.att.com/stores/washington/kirkland/124016",
        "latitude": 47.71071923193381,
        "longitude": -122.1800270636503,
        "GMap": "https://maps.google.com/maps?cid=6404398846492883075",
        "Phone": "+14258210786",
        "Street": "12502 Totem Lake Blvd NE",
        "City": "Kirkland",
        "State": "WA",
        "ZIP": 98034
    },
    {
        "name": "Totem Lake",
        "AttWeb": "https://www.att.com/stores/washington/kirkland/122201",
        "latitude": 47.7116455,
        "longitude": -122.1900328,
        "GMap": "https://maps.google.com/maps?cid=2201838260008620665",
        "Phone": "+14258209225",
        "Street": "11310 NE 124th St",
        "City": "Kirkland",
        "State": "WA",
        "ZIP": 98034
    },
    {
        "name": "Smokey Point",
        "AttWeb": "https://www.att.com/stores/washington/marysville/198524",
        "latitude": 48.151120978965984,
        "longitude": -122.1926429864908,
        "GMap": "https://maps.google.com/maps?cid=12947859400184219251",
        "Phone": "+13609983120",
        "Street": "2701 171st Place NE",
        "City": "Marysville",
        "State": "WA",
        "ZIP": 98271
    },
    {
        "name": "Bronson Way",
        "AttWeb": "https://www.att.com/stores/washington/renton/178290",
        "latitude": 47.484062604345525,
        "longitude": -122.2014224276744,
        "GMap": "https://maps.google.com/maps?cid=9942371650287679309",
        "Phone": "+12065759999",
        "Street": "1222 Bronson Way N",
        "City": "Renton",
        "State": "WA",
        "ZIP": 98057
    },
    {
        "name": "Bellevue Square",
        "AttWeb": "https://www.att.com/stores/washington/bellevue/357",
        "latitude": 47.615184,
        "longitude": -122.2036588,
        "GMap": "https://maps.google.com/maps?cid=12405392293289357057",
        "Phone": "+14256461075",
        "Street": "180 Bellevue Square",
        "City": "Bellevue",
        "State": "WA",
        "ZIP": 98004
    },
    {
        "name": "Renton Landing",
        "AttWeb": "https://www.att.com/stores/washington/renton/201426",
        "latitude": 47.4979584,
        "longitude": -122.2051922,
        "GMap": "https://maps.google.com/maps?cid=6220699636288435478",
        "Phone": "+14259005330",
        "Street": "720 North 10th Street",
        "City": "Renton",
        "State": "WA",
        "ZIP": 98057
    },
    {
        "name": "Bothell",
        "AttWeb": "https://www.att.com/stores/washington/bothell/120132",
        "latitude": 47.8106155,
        "longitude": -122.2066893,
        "GMap": "https://maps.google.com/maps?cid=4990978618245934463",
        "Phone": "+14254850034",
        "Street": "20611 Bothell Everett Hwy",
        "City": "Bothell",
        "State": "WA",
        "ZIP": 98012
    },
    {
        "name": "Everett Mall",
        "AttWeb": "https://www.att.com/stores/washington/everett/80433",
        "latitude": 47.91017211482193,
        "longitude": -122.21329808235168,
        "GMap": "https://maps.google.com/maps?cid=13009696797957147346",
        "Phone": "+14254237631",
        "Street": "1402 SE Everett Mall Way",
        "City": "Everett",
        "State": "WA",
        "ZIP": 98208
    },
    {
        "name": "Bothell",
        "AttWeb": "https://www.att.com/stores/washington/bothell/178507",
        "latitude": 47.7903588,
        "longitude": -122.2159881,
        "GMap": "https://maps.google.com/maps?cid=7992542736058583142",
        "Phone": "+14252968185",
        "Street": "22833 Bothell Everett Hwy",
        "City": "Bothell",
        "State": "WA",
        "ZIP": 98021
    },
    {
        "name": "Mill Creek",
        "AttWeb": "https://www.att.com/stores/washington/mill-creek/178377",
        "latitude": 47.86129364415924,
        "longitude": -122.22026879920588,
        "GMap": "https://maps.google.com/maps?cid=4915753781927250160",
        "Phone": "+14252244779",
        "Street": "15111 Main St",
        "City": "Mill Creek",
        "State": "WA",
        "ZIP": 98012
    },
    {
        "name": "Kent",
        "AttWeb": "https://www.att.com/stores/washington/kent/178310",
        "latitude": 47.4387701,
        "longitude": -122.220958,
        "GMap": "https://maps.google.com/maps?cid=9113967569025302963",
        "Phone": "+14255296789",
        "Street": "18230 E Valley Hwy",
        "City": "Kent",
        "State": "WA",
        "ZIP": 98032
    },
    {
        "name": "Se Everett Mall Way",
        "AttWeb": "https://www.att.com/stores/washington/everett/121567",
        "latitude": 47.90845420458182,
        "longitude": -122.229162452796,
        "GMap": "https://maps.google.com/maps?cid=17801175508490535970",
        "Phone": "+14254053814",
        "Street": "221 SE Everett Mall Way",
        "City": "Everett",
        "State": "WA",
        "ZIP": 98208
    },
    {
        "name": "Auburn",
        "AttWeb": "https://www.att.com/stores/washington/auburn/120495",
        "latitude": 47.2961477,
        "longitude": -122.2439622,
        "GMap": "https://maps.google.com/maps?cid=15359147062084660384",
        "Phone": "+12534440166",
        "Street": "1038 Outlet Collection Way SW",
        "City": "Auburn",
        "State": "WA",
        "ZIP": 98001
    },
    {
        "name": "Super Mall",
        "AttWeb": "https://www.att.com/stores/washington/auburn/120094",
        "latitude": 47.2983612,
        "longitude": -122.245932,
        "GMap": "https://maps.google.com/maps?cid=8068908502223430979",
        "Phone": "+12539394675",
        "Street": "1101 Outlet Collection Way",
        "City": "Auburn",
        "State": "WA",
        "ZIP": 98001
    },
    {
        "name": "Westfield Southcenter Mall",
        "AttWeb": "https://www.att.com/stores/washington/tukwila/111644",
        "latitude": 47.4581684636546,
        "longitude": -122.2587631480219,
        "GMap": "https://maps.google.com/maps?cid=13611832174474482555",
        "Phone": "+12068385599",
        "Street": "2800 Southcenter Mall Blvd",
        "City": "Tukwila",
        "State": "WA",
        "ZIP": 98188
    },
    {
        "name": "Southcenter Mall",
        "AttWeb": "https://www.att.com/stores/washington/tukwila/80434",
        "latitude": 47.4577493,
        "longitude": -122.2596693,
        "GMap": "https://maps.google.com/maps?cid=13456655709357103107",
        "Phone": "+12062420798",
        "Street": "344 Southcenter Mall",
        "City": "Tukwila",
        "State": "WA",
        "ZIP": 98188
    },
    {
        "name": "Tukwila",
        "AttWeb": "https://www.att.com/stores/washington/tukwila/80612",
        "latitude": 47.45522356701854,
        "longitude": -122.26288244849684,
        "GMap": "https://maps.google.com/maps?cid=1356074683133506892",
        "Phone": "+12065752136",
        "Street": "16425 Southcenter Parkway",
        "City": "Tukwila",
        "State": "WA",
        "ZIP": 98188
    },
    {
        "name": "Alderwood Mall",
        "AttWeb": "https://www.att.com/stores/washington/lynnwood/79467",
        "latitude": 47.82985070832245,
        "longitude": -122.27264716919001,
        "GMap": "https://maps.google.com/maps?cid=3323913412097380453",
        "Phone": "+14257758450",
        "Street": "3000 184th St Sw",
        "City": "Lynnwood",
        "State": "WA",
        "ZIP": 98037
    },
    {
        "name": "Alderwood Towne Ctr",
        "AttWeb": "https://www.att.com/stores/washington/lynnwood/201373",
        "latitude": 47.8234703,
        "longitude": -122.2768751,
        "GMap": "https://maps.google.com/maps?cid=18445604288274873559",
        "Phone": "+14258180008",
        "Street": "3225 Alderwood Mall Boulevard",
        "City": "Lynnwood",
        "State": "WA",
        "ZIP": 98036
    },
    {
        "name": "Lynnwood",
        "AttWeb": "https://www.att.com/stores/washington/lynnwood/176013",
        "latitude": 47.8804951,
        "longitude": -122.2794018,
        "GMap": "https://maps.google.com/maps?cid=15088545508651227501",
        "Phone": "+14253742713",
        "Street": "12926 Mukilteo Speedway",
        "City": "Lynnwood",
        "State": "WA",
        "ZIP": 98087
    },
    {
        "name": "Puyallup",
        "AttWeb": "https://www.att.com/stores/washington/puyallup/201424",
        "latitude": 47.1144213124509,
        "longitude": -122.28936647604007,
        "GMap": "https://maps.google.com/maps?cid=15200069631080392502",
        "Phone": "+12534498333",
        "Street": "10418 156th Street E",
        "City": "Puyallup",
        "State": "WA",
        "ZIP": 98374
    },
    {
        "name": "AT&T Store Puyallup 4417 S. Meridian Street",
        "AttWeb": "https://www.att.com/stores/washington/puyallup/123214",
        "latitude": 47.14995792934717,
        "longitude": -122.29252231126605,
        "GMap": "https://maps.google.com/maps?cid=18250011212065460553",
        "Phone": "+12538644922",
        "Street": "4417 S. Meridian Street",
        "City": "Puyallup",
        "State": "WA",
        "ZIP": 98373
    },
    {
        "name": "Lake City",
        "AttWeb": "https://www.att.com/stores/washington/seattle/178369",
        "latitude": 47.71962097171519,
        "longitude": -122.29459108602828,
        "GMap": "https://maps.google.com/maps?cid=5998446018508503393",
        "Phone": "+12064203264",
        "Street": "12512 Lake City Way",
        "City": "Seattle",
        "State": "WA",
        "ZIP": 98125
    },
    {
        "name": "South Hill Mall",
        "AttWeb": "https://www.att.com/stores/washington/puyallup/120154",
        "latitude": 47.1583918,
        "longitude": -122.2953766,
        "GMap": "https://maps.google.com/maps?cid=10993626668832772856",
        "Phone": "+12538483231",
        "Street": "3500 S Meridian St",
        "City": "Puyallup",
        "State": "WA",
        "ZIP": 98373
    },
    {
        "name": "Milton",
        "AttWeb": "https://www.att.com/stores/washington/milton/178658",
        "latitude": 47.24887161230947,
        "longitude": -122.29589153350581,
        "GMap": "https://maps.google.com/maps?cid=13293443148914097535",
        "Phone": "+12535175732",
        "Street": "900 Meridian Avenue E",
        "City": "Milton",
        "State": "WA",
        "ZIP": 98354
    },
    {
        "name": "University Village",
        "AttWeb": "https://www.att.com/stores/washington/seattle/2925",
        "latitude": 47.6626345,
        "longitude": -122.30021,
        "GMap": "https://maps.google.com/maps?cid=9969708414739341652",
        "Phone": "+12067297184",
        "Street": "4626 25th Ave NE",
        "City": "Seattle",
        "State": "WA",
        "ZIP": 98105
    },
    {
        "name": "Gateway Plaza Store",
        "AttWeb": "https://www.att.com/stores/washington/federal-way/2499",
        "latitude": 47.315866,
        "longitude": -122.3020085,
        "GMap": "https://maps.google.com/maps?cid=14289384421255325025",
        "Phone": "+12535290448",
        "Street": "2420 S 320th St",
        "City": "Federal Way",
        "State": "WA",
        "ZIP": 98003
    },
    {
        "name": "Federal Way",
        "AttWeb": "https://www.att.com/stores/washington/federal-way/201442",
        "latitude": 47.3138419,
        "longitude": -122.3096789,
        "GMap": "https://maps.google.com/maps?cid=16603558294259484218",
        "Phone": "+12534498050",
        "Street": "1838 South Commons",
        "City": "Federal Way",
        "State": "WA",
        "ZIP": 98003
    },
    {
        "name": "Federal Way Crossings",
        "AttWeb": "https://www.att.com/stores/washington/federal-way/123839",
        "latitude": 47.289365353358264,
        "longitude": -122.31412710855665,
        "GMap": "https://maps.google.com/maps?cid=6237586253163139867",
        "Phone": "+12535179606",
        "Street": "1507 South 348th Street",
        "City": "Federal Way",
        "State": "WA",
        "ZIP": 98003
    },
    {
        "name": "Harvard Market",
        "AttWeb": "https://www.att.com/stores/washington/seattle/201387",
        "latitude": 47.613872134935725,
        "longitude": -122.3215479357259,
        "GMap": "https://maps.google.com/maps?cid=1697111090160856581",
        "Phone": "+12068066160",
        "Street": "819 East Pike St",
        "City": "Seattle",
        "State": "WA",
        "ZIP": 98122
    },
    {
        "name": "Northgate Mall",
        "AttWeb": "https://www.att.com/stores/washington/seattle/1875",
        "latitude": 47.7066815980161,
        "longitude": -122.32595138301684,
        "GMap": "https://maps.google.com/maps?cid=1143581870620903277",
        "Phone": "+12063612259",
        "Street": "401 NE Northgate Way",
        "City": "Seattle",
        "State": "WA",
        "ZIP": 98125
    },
    {
        "name": "Edmonds",
        "AttWeb": "https://www.att.com/stores/washington/edmonds/122213",
        "latitude": 47.7994159,
        "longitude": -122.3314736,
        "GMap": "https://maps.google.com/maps?cid=10982355179545646373",
        "Phone": "+14257766601",
        "Street": "22001 Hwy 99",
        "City": "Edmonds",
        "State": "WA",
        "ZIP": 98026
    },
    {
        "name": "Burlington",
        "AttWeb": "https://www.att.com/stores/washington/burlington/122235",
        "latitude": 48.45099090145562,
        "longitude": -122.33496576547623,
        "GMap": "https://maps.google.com/maps?cid=12140586309542388377",
        "Phone": "+13604243039",
        "Street": "1820 South Burlington Blvd",
        "City": "Burlington",
        "State": "WA",
        "ZIP": 98233
    },
    {
        "name": "Pacific Place",
        "AttWeb": "https://www.att.com/stores/washington/seattle/712",
        "latitude": 47.61284985393312,
        "longitude": -122.33528908363951,
        "GMap": "https://maps.google.com/maps?cid=7682543069787614807",
        "Phone": "+12062649237",
        "Street": "600 Pine St",
        "City": "Seattle",
        "State": "WA",
        "ZIP": 98101
    },
    {
        "name": "Normandy Park",
        "AttWeb": "https://www.att.com/stores/washington/normandy-park/178598",
        "latitude": 47.4424427,
        "longitude": -122.3356798,
        "GMap": "https://maps.google.com/maps?cid=17382877971188411884",
        "Phone": "+12065574662",
        "Street": "17829 1st Ave S",
        "City": "Normandy Park",
        "State": "WA",
        "ZIP": 98148
    },
    {
        "name": "Century Square",
        "AttWeb": "https://www.att.com/stores/washington/seattle/80917",
        "latitude": 47.6102308,
        "longitude": -122.3370625,
        "GMap": "https://maps.google.com/maps?cid=4207647102120797209",
        "Phone": "+12066820062",
        "Street": "1501 4th Ave",
        "City": "Seattle",
        "State": "WA",
        "ZIP": 98101
    },
    {
        "name": "Westlake Avenue North",
        "AttWeb": "https://www.att.com/stores/washington/seattle/119617",
        "latitude": 47.6227982,
        "longitude": -122.3382914,
        "GMap": "https://maps.google.com/maps?cid=11095816875841038316",
        "Phone": "+12068767700",
        "Street": "428 Westlake Ave N",
        "City": "Seattle",
        "State": "WA",
        "ZIP": 98109
    },
    {
        "name": "AT&T Store Seattle 13200 Aurora Ave",
        "AttWeb": "https://www.att.com/stores/washington/seattle/210207",
        "latitude": 47.72488776879232,
        "longitude": -122.34327031779098,
        "GMap": "https://maps.google.com/maps?cid=1724514320065292435",
        "Phone": "+14253859999",
        "Street": "13200 Aurora Ave",
        "City": "Seattle",
        "State": "WA",
        "ZIP": 98133
    },
    {
        "name": "Puyallup",
        "AttWeb": "https://www.att.com/stores/washington/puyallup/120174",
        "latitude": 47.096097851677364,
        "longitude": -122.35527680077212,
        "GMap": "https://maps.google.com/maps?cid=16219426414087007065",
        "Phone": "+12538477410",
        "Street": "5604 176th St E",
        "City": "Puyallup",
        "State": "WA",
        "ZIP": 98375
    },
    {
        "name": "Old Ballard",
        "AttWeb": "https://www.att.com/stores/washington/seattle/122203",
        "latitude": 47.662518780447044,
        "longitude": -122.3696306347847,
        "GMap": "https://maps.google.com/maps?cid=16857134770771139658",
        "Phone": "+12067061222",
        "Street": "907 NW Ballard Way",
        "City": "Seattle",
        "State": "WA",
        "ZIP": 98107
    },
    {
        "name": "Spanaway",
        "AttWeb": "https://www.att.com/stores/washington/spanaway/116021",
        "latitude": 47.07134081841207,
        "longitude": -122.41770249446012,
        "GMap": "https://maps.google.com/maps?cid=10848698225814972558",
        "Phone": "+12532717288",
        "Street": "20401 Mountain Highway East",
        "City": "Spanaway",
        "State": "WA",
        "ZIP": 98387
    },
    {
        "name": "Tacoma Mall",
        "AttWeb": "https://www.att.com/stores/washington/tacoma/80420",
        "latitude": 47.215081634296986,
        "longitude": -122.46800944479196,
        "GMap": "https://maps.google.com/maps?cid=15451403336022736712",
        "Phone": "+12534740136",
        "Street": "4502 S Steele St",
        "City": "Tacoma",
        "State": "WA",
        "ZIP": 98409
    },
    {
        "name": "Lincoln Plaza",
        "AttWeb": "https://www.att.com/stores/washington/tacoma/201398",
        "latitude": 47.2233591,
        "longitude": -122.4697612,
        "GMap": "https://maps.google.com/maps?cid=15371960257181665129",
        "Phone": "+12536500955",
        "Street": "2505 S 38th St",
        "City": "Tacoma",
        "State": "WA",
        "ZIP": 98409
    },
    {
        "name": "Bellingham",
        "AttWeb": "https://www.att.com/stores/washington/bellingham/113896",
        "latitude": 48.735215245972,
        "longitude": -122.47048998172909,
        "GMap": "https://maps.google.com/maps?cid=3631654048049301908",
        "Phone": "+13606715562",
        "Street": "102 N Samish Way",
        "City": "Bellingham",
        "State": "WA",
        "ZIP": 98225
    },
    {
        "name": "Bellingham",
        "AttWeb": "https://www.att.com/stores/washington/bellingham/1698",
        "latitude": 48.7974886,
        "longitude": -122.4865205,
        "GMap": "https://maps.google.com/maps?cid=1746738729198340831",
        "Phone": "+13606476992",
        "Street": "4291 Meridian St",
        "City": "Bellingham",
        "State": "WA",
        "ZIP": 98226
    },
    {
        "name": "Lynden",
        "AttWeb": "https://www.att.com/stores/washington/lynden/169623",
        "latitude": 48.93483024465506,
        "longitude": -122.4874434368785,
        "GMap": "https://maps.google.com/maps?cid=2189845339918195586",
        "Phone": "+13603063943",
        "Street": "8071 Guide Meridian Rd",
        "City": "Lynden",
        "State": "WA",
        "ZIP": 98264
    },
    {
        "name": "Bellis Fair",
        "AttWeb": "https://www.att.com/stores/washington/bellingham/111653",
        "latitude": 48.785781254462826,
        "longitude": -122.49050071884858,
        "GMap": "https://maps.google.com/maps?cid=13482398190885455497",
        "Phone": "+13607342331",
        "Street": "1 Bellis Fair Parkway",
        "City": "Bellingham",
        "State": "WA",
        "ZIP": 98226
    },
    {
        "name": "Mill Plain Center",
        "AttWeb": "https://www.att.com/stores/washington/vancouver/201399",
        "latitude": 45.61592182510381,
        "longitude": -122.50471880761359,
        "GMap": "https://maps.google.com/maps?cid=16811202208552034113",
        "Phone": "+13603861001",
        "Street": "16320 SE Mill Plain Boulevard",
        "City": "Vancouver",
        "State": "WA",
        "ZIP": 98684
    },
    {
        "name": "Lakewood",
        "AttWeb": "https://www.att.com/stores/washington/lakewood/122202",
        "latitude": 47.16638243017324,
        "longitude": -122.50888422131538,
        "GMap": "https://maps.google.com/maps?cid=15143717189732996396",
        "Phone": "+12535884770",
        "Street": "10009 Bridgeport Way SW",
        "City": "Lakewood",
        "State": "WA",
        "ZIP": 98499
    },
    {
        "name": "Tacoma Westgate",
        "AttWeb": "https://www.att.com/stores/washington/tacoma/178583",
        "latitude": 47.27237849999999,
        "longitude": -122.5138596,
        "GMap": "https://maps.google.com/maps?cid=17586881784292910687",
        "Phone": "+12532123480",
        "Street": "2631 N Pearl St",
        "City": "Tacoma",
        "State": "WA",
        "ZIP": 98407
    },
    {
        "name": "University Place",
        "AttWeb": "https://www.att.com/stores/washington/university-place/117438",
        "latitude": 47.221171211669414,
        "longitude": -122.53553867340088,
        "GMap": "https://maps.google.com/maps?cid=15928644645894570013",
        "Phone": "+12536207043",
        "Street": "3915 Bridgeport Way",
        "City": "University Place",
        "State": "WA",
        "ZIP": 98466
    },
    {
        "name": "Mill Plain Boulevard",
        "AttWeb": "https://www.att.com/stores/washington/vancouver/120526",
        "latitude": 45.6214793,
        "longitude": -122.5532074,
        "GMap": "https://maps.google.com/maps?cid=4991397277461318599",
        "Phone": "+13607682006",
        "Street": "11600 SE Mill Plain Blvd",
        "City": "Vancouver",
        "State": "WA",
        "ZIP": 98684
    },
    {
        "name": "Battle Ground",
        "AttWeb": "https://www.att.com/stores/washington/battle-ground/120136",
        "latitude": 45.78131474113917,
        "longitude": -122.56169313988113,
        "GMap": "https://maps.google.com/maps?cid=6485365476680041931",
        "Phone": "+13606875523",
        "Street": "2312 W Main St",
        "City": "Battle Ground",
        "State": "WA",
        "ZIP": 98604
    },
    {
        "name": "Gig Harbor",
        "AttWeb": "https://www.att.com/stores/washington/gig-harbor/201682",
        "latitude": 47.30094500504668,
        "longitude": -122.57877284237793,
        "GMap": "https://maps.google.com/maps?cid=4011896214021571996",
        "Phone": "+12539995579",
        "Street": "4701 Point Fosdick Drive",
        "City": "Gig Harbor",
        "State": "WA",
        "ZIP": 98335
    },
    {
        "name": "Ne Thurston Way",
        "AttWeb": "https://www.att.com/stores/washington/vancouver/121673",
        "latitude": 45.6539415,
        "longitude": -122.5866414,
        "GMap": "https://maps.google.com/maps?cid=3474665360289580571",
        "Phone": "+13607182807",
        "Street": "4315 NE Thurston Way",
        "City": "Vancouver",
        "State": "WA",
        "ZIP": 98662
    },
    {
        "name": "Vancouver",
        "AttWeb": "https://www.att.com/stores/washington/vancouver/201365",
        "latitude": 45.66745663099755,
        "longitude": -122.60260462760925,
        "GMap": "https://maps.google.com/maps?cid=1128236306010516439",
        "Phone": "+13605123131",
        "Street": "6715 NE 63rd St",
        "City": "Vancouver",
        "State": "WA",
        "ZIP": 98661
    },
    {
        "name": "Anacortes",
        "AttWeb": "https://www.att.com/stores/washington/anacortes/198574",
        "latitude": 48.5082019,
        "longitude": -122.613304,
        "GMap": "https://maps.google.com/maps?cid=14482613875467324227",
        "Phone": "+13608310542",
        "Street": "1704 Commercial Avenue",
        "City": "Anacortes",
        "State": "WA",
        "ZIP": 98221
    },
    {
        "name": "Bremerton",
        "AttWeb": "https://www.att.com/stores/washington/bremerton/114735",
        "latitude": 47.60359541811639,
        "longitude": -122.62969695412266,
        "GMap": "https://maps.google.com/maps?cid=8251917571363724565",
        "Phone": "+13603732793",
        "Street": "4203 Wheaton Way",
        "City": "Bremerton",
        "State": "WA",
        "ZIP": 98310
    },
    {
        "name": "Port Orchard",
        "AttWeb": "https://www.att.com/stores/washington/port-orchard/117435",
        "latitude": 47.5175856,
        "longitude": -122.6308333,
        "GMap": "https://maps.google.com/maps?cid=12623756751978607473",
        "Phone": "+13606746885",
        "Street": "3475 Bethel Rd SE",
        "City": "Port Orchard",
        "State": "WA",
        "ZIP": 98366
    },
    {
        "name": "Oak Harbor",
        "AttWeb": "https://www.att.com/stores/washington/oak-harbor/122208",
        "latitude": 48.290180497569516,
        "longitude": -122.65741534536573,
        "GMap": "https://maps.google.com/maps?cid=11528299300465986361",
        "Phone": "+13606792784",
        "Street": "31600 SR 20",
        "City": "Oak Harbor",
        "State": "WA",
        "ZIP": 98277
    },
    {
        "name": "Poulsbo",
        "AttWeb": "https://www.att.com/stores/washington/poulsbo/120936",
        "latitude": 47.75528285278147,
        "longitude": -122.66097585759422,
        "GMap": "https://maps.google.com/maps?cid=16730184483573186239",
        "Phone": "+13609300427",
        "Street": "21215 Olhava Way NW",
        "City": "Poulsbo",
        "State": "WA",
        "ZIP": 98370
    },
    {
        "name": "Salmon Creek",
        "AttWeb": "https://www.att.com/stores/washington/vancouver/120194",
        "latitude": 45.71899941948721,
        "longitude": -122.66145341099673,
        "GMap": "https://maps.google.com/maps?cid=18269485346845217934",
        "Phone": "+13602132023",
        "Street": "910 NE Tenney Rd",
        "City": "Vancouver",
        "State": "WA",
        "ZIP": 98685
    },
    {
        "name": "Hazel Dell",
        "AttWeb": "https://www.att.com/stores/washington/vancouver/120182",
        "latitude": 45.6780048,
        "longitude": -122.6626757,
        "GMap": "https://maps.google.com/maps?cid=11013731691539783637",
        "Phone": "+13605670409",
        "Street": "7720 NE Hwy 99",
        "City": "Vancouver",
        "State": "WA",
        "ZIP": 98665
    },
    {
        "name": "Kitsap Mall",
        "AttWeb": "https://www.att.com/stores/washington/silverdale/2158",
        "latitude": 47.65614520893991,
        "longitude": -122.69119262695307,
        "GMap": "https://maps.google.com/maps?cid=16338726858989096325",
        "Phone": "+13606981910",
        "Street": "10315 Silverdale Way NW",
        "City": "Silverdale",
        "State": "WA",
        "ZIP": 98383
    },
    {
        "name": "Silverdale",
        "AttWeb": "https://www.att.com/stores/washington/silverdale/119600",
        "latitude": 47.6633634,
        "longitude": -122.6962987,
        "GMap": "https://maps.google.com/maps?cid=12910998140784783578",
        "Phone": "+13602045517",
        "Street": "11065 Pacific Crest Place NW",
        "City": "Silverdale",
        "State": "WA",
        "ZIP": 98383
    },
    {
        "name": "Lacey",
        "AttWeb": "https://www.att.com/stores/washington/lacey/122216",
        "latitude": 47.055930713366415,
        "longitude": -122.7662917971611,
        "GMap": "https://maps.google.com/maps?cid=2119838906400560307",
        "Phone": "+13604555306",
        "Street": "8205 Martin Way E",
        "City": "Lacey",
        "State": "WA",
        "ZIP": 98516
    },
    {
        "name": "Olympia",
        "AttWeb": "https://www.att.com/stores/washington/olympia/122221",
        "latitude": 47.04842785932691,
        "longitude": -122.8301538603136,
        "GMap": "https://maps.google.com/maps?cid=9994880068022553698",
        "Phone": "+13604598014",
        "Street": "4250 Martin Way E",
        "City": "Olympia",
        "State": "WA",
        "ZIP": 98516
    },
    {
        "name": "Longview",
        "AttWeb": "https://www.att.com/stores/washington/longview/1656",
        "latitude": 46.1458413,
        "longitude": -122.9303447,
        "GMap": "https://maps.google.com/maps?cid=8372472011153300221",
        "Phone": "+13605016737",
        "Street": "1015 Ocean Beach Hwy",
        "City": "Longview",
        "State": "WA",
        "ZIP": 98632
    },
    {
        "name": "Capital Mall",
        "AttWeb": "https://www.att.com/stores/washington/olympia/80864",
        "latitude": 47.041486,
        "longitude": -122.934261,
        "GMap": "https://maps.google.com/maps?cid=11157100494825052563",
        "Phone": "+13603525996",
        "Street": "625 Blacklake Blvd",
        "City": "Olympia",
        "State": "WA",
        "ZIP": 98502
    },
    {
        "name": "Centralia",
        "AttWeb": "https://www.att.com/stores/washington/centralia/120098",
        "latitude": 46.73029554520655,
        "longitude": -122.97715635613713,
        "GMap": "https://maps.google.com/maps?cid=11248994605936833046",
        "Phone": "+13607360180",
        "Street": "1212 Lum Road",
        "City": "Centralia",
        "State": "WA",
        "ZIP": 98531
    },
    {
        "name": "Sequim",
        "AttWeb": "https://www.att.com/stores/washington/sequim/122206",
        "latitude": 48.07780117807073,
        "longitude": -123.12987864017487,
        "GMap": "https://maps.google.com/maps?cid=18401889053081970222",
        "Phone": "+13606815413",
        "Street": "1099 W Washington St",
        "City": "Sequim",
        "State": "WA",
        "ZIP": 98382
    }
]